CVE_MUN,CVE_LOC,actividad,nombre_act,neg_tot,CVE_ENT,NOM_ENT,NOM_MUN,NOM_LOC,POBTOT,deci_lon,deci_lat
02002,020020001,Corporativos,Corporativos,3,02,Baja California,Mexicali,Mexicali,854186,-115.47557888888888,32.641175833333335
02002,020020001,Corporativos,Tenedoras de acciones,2,02,Baja California,Mexicali,Mexicali,854186,-115.47557888888888,32.641175833333335
02004,020040001,Corporativos,Corporativos,4,02,Baja California,Tijuana,Tijuana,1810645,-117.01891333333332,32.53246083333333
02004,020040001,Corporativos,Tenedoras de acciones,1,02,Baja California,Tijuana,Tijuana,1810645,-117.01891333333332,32.53246083333333
02005,020050001,Corporativos,Corporativos,1,02,Baja California,Playas de Rosarito,Playas de Rosarito,100660,-117.05445888888887,32.363684166666665
03001,030010133,Corporativos,Corporativos,1,03,Baja California Sur,Comondú,Ciudad Insurgentes,9133,-111.77746194444444,25.264104444444445
03003,030030001,Corporativos,Corporativos,2,03,Baja California Sur,La Paz,La Paz,250141,-110.30659,24.148745
03008,030080054,Corporativos,Corporativos,1,03,Baja California Sur,Los Cabos,Cabo San Lucas,202694,-109.92518611111112,22.897018888888887
04002,040020001,Corporativos,Corporativos,1,04,Campeche,Campeche,San Francisco de Campeche,249623,-90.53964916666666,19.844814166666666
04003,040030001,Corporativos,Corporativos,1,04,Campeche,Carmen,Ciudad del Carmen,191238,-91.83645,18.637789444444444
04008,040080001,Corporativos,Corporativos,1,04,Campeche,Tenabo,Tenabo,8748,-90.22576333333332,20.039676944444444
14067,140670001,Corporativos,Corporativos,1,14,Jalisco,Puerto Vallarta,Puerto Vallarta,224166,-105.22722222222222,20.613611111111112
14067,140670001,Corporativos,Tenedoras de acciones,1,14,Jalisco,Puerto Vallarta,Puerto Vallarta,224166,-105.22722222222222,20.613611111111112
18020,180200592,Corporativos,Tenedoras de acciones,1,18,Nayarit,Bahía de Banderas,La Compuerta Número 2,22,-105.39761666666668,20.892183888888887
23002,230020001,Corporativos,Corporativos,1,23,Quintana Roo,Felipe Carrillo Puerto,Felipe Carrillo Puerto,30754,-88.04658666666667,19.57851
23004,230040104,Corporativos,Corporativos,1,23,Quintana Roo,Othón P. Blanco,Ucum,1676,-88.51943833333333,18.50574138888889
23005,230050001,Corporativos,Corporativos,3,23,Quintana Roo,Benito Juárez,Cancún,888797,-86.8248111111111,21.16141611111111
23005,230050001,Corporativos,Tenedoras de acciones,2,23,Quintana Roo,Benito Juárez,Cancún,888797,-86.8248111111111,21.16141611111111
25001,250010001,Corporativos,Corporativos,1,25,Sinaloa,Ahome,Los Mochis,298009,-108.99434277777776,25.783416944444447
25001,250010001,Corporativos,Tenedoras de acciones,1,25,Sinaloa,Ahome,Los Mochis,298009,-108.99434277777776,25.783416944444447
25006,250060001,Corporativos,Corporativos,8,25,Sinaloa,Culiacán,Culiacán Rosales,808416,-107.39375611111112,24.808808055555556
25006,250060001,Corporativos,Tenedoras de acciones,1,25,Sinaloa,Culiacán,Culiacán Rosales,808416,-107.39375611111112,24.808808055555556
25011,250110001,Corporativos,Corporativos,1,25,Sinaloa,Guasave,Guasave,77849,-108.4718175,25.56554722222222
25012,250120001,Corporativos,Corporativos,1,25,Sinaloa,Mazatlán,Mazatlán,441975,-106.4222213888889,23.20031583333333
25012,250120001,Corporativos,Tenedoras de acciones,1,25,Sinaloa,Mazatlán,Mazatlán,441975,-106.4222213888889,23.20031583333333
26029,260290001,Corporativos,Corporativos,1,26,Sonora,Guaymas,Heroica Guaymas,117253,-110.88944472222222,27.923248611111113
26029,260290001,Corporativos,Tenedoras de acciones,1,26,Sonora,Guaymas,Heroica Guaymas,117253,-110.88944472222222,27.923248611111113
26030,260300001,Corporativos,Corporativos,7,26,Sonora,Hermosillo,Hermosillo,855563,-110.95846361111111,29.074891666666662
26030,260300001,Corporativos,Tenedoras de acciones,2,26,Sonora,Hermosillo,Hermosillo,855563,-110.95846361111111,29.074891666666662
26042,260420001,Corporativos,Corporativos,1,26,Sonora,Navojoa,Navojoa,120926,-109.44554611111111,27.0815975
31059,310590001,Corporativos,Corporativos,1,31,Yucatán,Progreso,Progreso,41965,-89.663595,21.282577222222223
