sens_tot_score,exp_tot_score,adap_tot_score,vul_score,CVE_MUN,CVE_LOC,CVE_ENT,NOM_ENT,NOM_MUN,NOM_LOC,POBTOT,deci_lon,deci_lat
0.00137908499636856,0.3322756933962372,0.6238866273539638,-0.29023184896135806,04008,040080002,04,Campeche,Tenabo,Emiliano Zapata,469,-90.15415055555556,19.824409166666666
0.00318060246863972,0.4905505431080639,0.5723713635542471,-0.0786402179775435,18008,180080005,18,Nayarit,Xalisco,El Carrizal,367,-104.93194444444444,21.378333333333337
0.01503184779867484,0.5035835236407905,0.7036712367574536,-0.18505586531798823,18008,180080028,18,Nayarit,Xalisco,San Antonio,163,-105.06540805555557,21.37048861111111
0.24918328196919665,0.5826080743975779,0.5762306861060078,0.2555606702607667,23003,230030001,23,Quintana Roo,Isla Mujeres,Isla Mujeres,13174,-86.74609166666667,21.256569166666665
0.13888888888888887,0.5697071007517063,0.676025416439911,0.03257057320068413,23003,230030435,23,Quintana Roo,Isla Mujeres,El Dorado,5,-86.79787777777777,21.329485555555554
0.2806094215244508,0.5502084148651212,0.3958846491126133,0.4349331872769587,23005,230050001,23,Quintana Roo,Benito Juárez,Cancún,888797,-86.8248111111111,21.16141611111111
0.0748404101448694,0.424331156971135,0.4694482121315495,0.029723354984454886,23009,230090001,23,Quintana Roo,Tulum,Tulum,33374,-87.46320472222223,20.210776666666668
0.01547921967769295,0.46872027537357314,0.5424195930174213,-0.05822009796615518,23009,230090106,23,Quintana Roo,Tulum,Javier Rojo Gómez (Punta Allen),393,-87.47648,19.800345555555555
0.03648737410241724,0.5997729089553704,0.4396473716174472,0.19661291144034038,23011,230110001,23,Quintana Roo,Puerto Morelos,Puerto Morelos,19205,-86.87617722222221,20.8484525
0.06402959590210587,0.5264174152515059,0.5392198881924312,0.05122712296118059,23011,230110193,23,Quintana Roo,Puerto Morelos,Leona Vicario,7028,-87.20452666666667,20.98757944444445
0.1628226936161697,0.48188079158382335,0.48697798977761625,0.15772549542237685,31004,310040001,31,Yucatán,Baca,Baca,4997,-89.39938222222223,21.109548333333336
0.2713907143578527,0.5097233501071915,0.49430213481366114,0.28681192965138314,31011,310110001,31,Yucatán,Celestún,Celestún,8366,-90.39946361111112,20.86009166666667
6.401835903754212e-4,0.4988162505405803,0.7322582079225317,-0.23280177379157596,31011,310110059,31,Yucatán,Celestún,Flamingos,14,-90.39065,20.88262277777778
1.7964035397804827e-4,0.5054190554810652,0.4750964245715239,0.030502271263519343,31026,310260001,31,Yucatán,Dzemul,Dzemul,3467,-89.30881388888889,21.211503055555553
0.00578882335069151,0.5138680439530475,0.5836659557174145,-0.06400908841367547,31026,310260006,31,Yucatán,Dzemul,San Eduardo,57,-89.276285,21.23311805555555
0.00389927410674621,0.5539062823967844,0.5282911371257887,0.029514419377741907,31027,310270001,31,Yucatán,Dzidzantún,Dzidzantún,7530,-89.042975,21.246678333333335
0.17759084619086482,0.5719180690003414,0.6477703070420062,0.1017386081492,31027,310270004,31,Yucatán,Dzidzantún,Santa Clara,38,-89.01375416666667,21.373820277777774
0.160644560315125,0.5827314437695865,0.4701914866418892,0.2731845174428223,31029,310290001,31,Yucatán,Dzilam González,Dzilam González,6169,-88.92974055555555,21.280125
0.24999999999999997,0.5709547022121879,0.5856703992389712,0.23528430297321667,31033,310330006,31,Yucatán,Halachó,Santa María Acú,1512,-90.16353722222225,20.54778166666667
7.335350054132501e-4,0.4615399217983674,0.4949528568436777,-0.032679400039897055,31038,310380001,31,Yucatán,Hunucmá,Hunucmá,28412,-89.87705166666666,21.016154166666663
0.4360916902524772,0.4013091758490256,0.45461566847503426,0.3827851976264685,31038,310380004,31,Yucatán,Hunucmá,Sisal,2078,-90.03254027777778,21.1648975
1.6467377101503193e-4,0.4752401226738622,0.46763956881052593,0.007765227634351279,31039,310390001,31,Yucatán,Ixil,Ixil,4115,-89.48121111111111,21.153000277777775
7.276277710421691e-4,0.5620348100073708,0.6154809258950935,-0.05271848811668056,31048,310480012,31,Yucatán,Maxcanú,Paraíso,723,-90.117705,20.6754
4.702595437351565e-4,0.4972931430259509,0.41990032120430254,0.0778630813653835,31052,310520001,31,Yucatán,Motul,Motul de Carrillo Puerto,26081,-89.28392472222222,21.095550555555555
0.01973790925773739,0.5065717425203602,0.7197592314789966,-0.19344957970089893,31052,310520021,31,Yucatán,Motul,Komchén Martínez,112,-89.26410083333333,21.152445
0.2308400088212529,0.5619519715417728,0.4229628077829361,0.36982917258008957,31061,310610001,31,Yucatán,Río Lagartos,Río Lagartos,2493,-88.1579775,21.597750555555553
0.01307962637101336,0.5145130828606602,0.6272942375304095,-0.09970152829873591,31061,310610002,31,Yucatán,Río Lagartos,Las Coloradas,1399,-87.99060722222222,21.608724722222224
0.14060507347294413,0.5879441450552824,0.43470711105067666,0.29384210747754985,31065,310650001,31,Yucatán,San Felipe,San Felipe,2069,-88.23206333333333,21.567598888888888
0.2013124481807893,0.5193922778840134,0.4841581184172828,0.23654660764751995,31068,310680001,31,Yucatán,Sinanché,Sinanché,2586,-89.18578333333333,21.225595
0.04951609710531799,0.5352212034432178,0.4720829633696109,0.11265433717892487,31068,310680003,31,Yucatán,Sinanché,San Crisanto,605,-89.17180888888889,21.35328138888889
0.06976716260966039,0.5115239318703396,0.49913004698576346,0.08216104749423658,31082,310820001,31,Yucatán,Telchac Pueblo,Telchac,3496,-89.27126722222222,21.20334888888889
0.3992886330454307,0.5125238742632884,0.4166603314959465,0.4951521758127726,31083,310830001,31,Yucatán,Telchac Puerto,Telchac Puerto,1913,-89.264225,21.343003888888887
0.5928933871570489,0.4674520616164593,0.13182153503499966,0.9285239137385086,02001,020010001,02,Baja California,Ensenada,Ensenada,330652,-116.59513388888888,31.80894388888889
0.06296508474054444,0.4603127674110946,0.5814154450585315,-0.058137592906892466,02001,020010095,02,Baja California,Ensenada,Ejido Eréndira,1711,-116.371395,31.27332361111111
0.00469838850174215,0.4329130803225083,0.6508555977840865,-0.21324412895983608,02001,020010118,02,Baja California,Ensenada,Licenciado Gustavo Díaz Ordaz,1640,-116.15444388888888,30.971335555555555
0.03254077602650016,0.4540342336653614,0.730205304504131,-0.2436302948122695,02001,020010124,02,Baja California,Ensenada,Isla de Cedros,1233,-115.19277777777778,28.095555555555553
0.01432128222804694,0.5645020806799939,0.6454065620350888,-0.06658319912704802,02001,020010127,02,Baja California,Ensenada,Jatay,5,-116.8549622222222,32.02642611111111
0.04820874536344288,0.46644103798593634,0.5538582516626547,-0.03920846831327551,02001,020010139,02,Baja California,Ensenada,Rodolfo Sánchez Taboada (Maneadero),27969,-116.57149055555556,31.72355083333333
0.02184461485966897,0.4670534125597019,0.6990029707848459,-0.21010494336547497,02001,020010149,02,Baja California,Ensenada,El Milagro,33,-116.5432511111111,32.08848444444445
0.06598454270811739,0.4792024853365371,0.5316453865489603,0.013541641495694146,02001,020010155,02,Baja California,Ensenada,Díaz [Rancho],11,-116.61212777777776,31.711625
0.08905238580757166,0.4878119422187356,0.5772375697823218,-3.732417560144974e-4,02001,020010184,02,Baja California,Ensenada,Coronel Esteban Cantú,545,-116.64096888888888,31.7052275
0.00301429436879759,0.4488592866514242,0.5727835850442443,-0.12091000402402252,02001,020010186,02,Baja California,Ensenada,Ejido Punta Colnett (Punta Colonet),3095,-116.21029916666669,31.070360555555556
0.0010729817995761,0.45511683263388536,0.5804959604202623,-0.12430614598680084,02001,020010242,02,Baja California,Ensenada,Santo Tomás,395,-116.40687416666668,31.551543055555555
0.00227530584056827,0.4279988546540617,0.5498541210736105,-0.11957996057898057,02001,020010243,02,Baja California,Ensenada,San Vicente,5068,-116.25033527777778,31.326623333333337
0.3199754383926938,0.4880682569787751,0.4390768478012124,0.3689668475702565,02001,020010247,02,Baja California,Ensenada,El Sauzal de Rodríguez,11371,-116.69870305555555,31.896220555555555
0.02184461485966897,0.5016718237987773,0.6372683182809463,-0.11375187962250011,02001,020010254,02,Baja California,Ensenada,Cuatro Cuatros,10,-116.73463638888887,31.947340555555556
0.07790825743749251,0.49815754485721775,0.5998519026381459,-0.023786100343435645,02001,020010329,02,Baja California,Ensenada,La Bufadora,100,-116.71386472222224,31.722886666666664
6.463113432198502e-4,0.4824161059217806,0.5710336295330587,-0.08797121226805826,02001,020010385,02,Baja California,Ensenada,Los Cipreses,14,-116.6647038888889,31.951798888888888
2.2865888555120145e-4,0.4768109763186085,0.72194112462807,-0.24490148942391032,02001,020010544,02,Baja California,Ensenada,Rancho Percebú,15,-114.70205583333332,30.817072222222222
1.318592852650284e-4,0.4731310516273768,0.7099342749820798,-0.236671364069438,02001,020010645,02,Baja California,Ensenada,Punta Cabras,23,-116.43985166666668,31.327240555555555
0.05656018370350459,0.4849242909850288,0.6118289015088187,-0.0703444268202853,02001,020010677,02,Baja California,Ensenada,El Ramajal,67,-116.6248311111111,31.68560111111111
0.07476575259797395,0.4869246668281652,0.5826005934495989,-0.020910174023459738,02001,020010678,02,Baja California,Ensenada,El Aguaje,15,-116.63718333333334,31.702062777777776
9.843328253436e-4,0.46271214934022725,0.6599806386010596,-0.19628415643548874,02001,020010684,02,Baja California,Ensenada,Campo la Roca,14,-114.70704111111112,30.710641111111112
0.02040343143736294,0.4510973050845605,0.5613288017878665,-0.08982806526594306,02001,020010732,02,Baja California,Ensenada,El Sauco,14,-116.38873055555555,31.543278333333333
0.05551414605649558,0.4673721691629668,0.6177866014699994,-0.09490028625053704,02001,020010736,02,Baja California,Ensenada,Puerto San Isidro,109,-116.40258611111112,31.28922777777778
0.00517742610800684,0.4406210123896051,0.7486707341557928,-0.3028722956581808,02001,020010769,02,Baja California,Ensenada,San Marcos,13,-116.44364055555556,32.14187027777778
9.1284797972176e-4,0.4636004990371622,0.6933559830828783,-0.2288426360659943,02001,020010848,02,Baja California,Ensenada,Campo Zaguaro,55,-114.70759694444445,30.71829861111111
0.01869295151145587,0.5453674626620291,0.6363683433322639,-0.07230792915877893,02001,020010861,02,Baja California,Ensenada,El Salto,19,-116.77984277777776,32.039498888888886
0.00255479046163738,0.41138533317338377,0.7101751355779026,-0.29623501194288143,02001,020010892,02,Baja California,Ensenada,Puertecitos,24,-114.64032555555556,30.350953611111112
0.04547300257702424,0.4764205556409585,0.5935879331582196,-0.0716943749402369,02001,020010909,02,Baja California,Ensenada,Rancho Zamora (Parcela Cuatrocientos Veintiséis),45,-116.5961775,31.696176666666663
0.13194444444444445,0.4538965065412338,0.6254773815096822,-0.03963643052400401,02001,020010942,02,Baja California,Ensenada,Uruapan,694,-116.43984416666667,31.623483333333333
0.02597888832123264,0.46090950309065776,0.5154101056758635,-0.028521714263973152,02001,020010958,02,Baja California,Ensenada,La Huerta (Ejido Nacionalista),9,-116.56094194444444,31.75730972222222
0.00365512724093232,0.43623771475550577,0.6617335705177063,-0.22184072852126824,02001,020011025,02,Baja California,Ensenada,Poblado Héroes de Chapultepec,2360,-116.16487583333334,30.981760277777777
7.556739397923794e-4,0.4592481980895637,0.6868296435971939,-0.22682577156783784,02001,020011048,02,Baja California,Ensenada,Playa México [Campo],7,-114.69813555555557,30.651885555555555
2.408080717470982e-4,0.4025407631811097,0.7201535738281851,-0.3173720025753283,02001,020011080,02,Baja California,Ensenada,Papá Fernández [Campo],12,-114.4045525,29.826989166666667
0.07885144659418132,0.4916198322649742,0.5572989593587493,0.013172319500406204,02001,020011115,02,Baja California,Ensenada,Aguacaliente,24,-116.660695,31.71794722222222
0.01009766446047335,0.4848804312355123,0.9009159782047016,-0.405937882508716,02001,020011121,02,Baja California,Ensenada,Agua Dulce,13,-116.6072372222222,31.55295472222222
0.05210421977526695,0.4709898361487653,0.6204097264813746,-0.09731567055734236,02001,020011170,02,Baja California,Ensenada,Arce (Ejido Nacionalista),64,-116.59312416666666,31.744705555555555
5.966357591405593e-4,0.4689555139012139,0.710679380108186,-0.24112723044783152,02001,020011183,02,Baja California,Ensenada,Bahía Santa María [Campo],7,-114.69864333333334,30.7415225
0.02184461485966897,0.5095023737777928,0.630640654928106,-0.09929366629064418,02001,020011201,02,Baja California,Ensenada,Rancho Bonito,38,-116.7465727777778,31.98007972222222
2.7538954649472883e-5,0.4187903466840416,0.8389487884627314,-0.4201309028240403,02001,020011238,02,Baja California,Ensenada,Serena [Campo],13,-114.644685,30.376628055555557
0.06502901314643186,0.47637674732494456,0.578115500548547,-0.03670974007717054,02001,020011251,02,Baja California,Ensenada,Sánchez (Ejido Nacionalista),53,-116.60588055555554,31.723858055555553
2.7538954649472883e-5,0.4366094931168763,0.7881033445693623,-0.3514663124978365,02001,020011280,02,Baja California,Ensenada,Cimarrón [Campo],9,-114.6332225,30.418799166666663
0.06663383517487026,0.47533611906076634,0.6108134621823421,-0.06884350794670546,02001,020011297,02,Baja California,Ensenada,Colonia Costa Azul,157,-116.60742111111112,31.743481666666668
1.293507123873404e-4,0.46210000658569345,0.8314107920753617,-0.36918143477728094,02001,020011303,02,Baja California,Ensenada,Cristina [Campo],5,-114.6501675,30.52944638888889
2.966424113133633e-4,0.4813011383428413,0.6223324551942329,-0.1407346744400782,02001,020011309,02,Baja California,Ensenada,Cuatro Milpas,337,-116.67264583333332,31.89570361111111
9.843328253436e-4,0.46224533038195553,0.616648346204921,-0.1534186829976219,02001,020011334,02,Baja California,Ensenada,Delicias [Campo],4,-114.70511944444443,30.704341944444444
9.843328253436e-4,0.46089284666710273,0.6600130527538078,-0.1981358732613615,02001,020011341,02,Baja California,Ensenada,Diamante [Campo],4,-114.69498916666667,30.674634444444447
7.127212995706993e-4,0.4790984870931454,0.7245717486884196,-0.2447605402957035,02001,020011345,02,Baja California,Ensenada,Gutiérrez Polanco (Rancho Panchos),5,-114.7092525,30.865753611111113
9.843328253436e-4,0.46138462441804634,0.7119069018872545,-0.24953794464386453,02001,020011373,02,Baja California,Ensenada,La Esmeralda [Campo],9,-114.69662138888889,30.68467138888889
0.003510101010101,0.4252117703865943,0.9048541854450864,-0.4761323140483911,02001,020011436,02,Baja California,Ensenada,Ejido Jamau,8,-115.70651694444445,31.493870833333336
0.07885144659418132,0.493172002584881,0.5812865624037793,-0.009263113224716957,02001,020011444,02,Baja California,Ensenada,La Jolla [Campo Turístico],137,-116.66852138888888,31.714685
1.318592852650284e-4,0.4717148094956254,0.7395627995103118,-0.26771613072942135,02001,020011489,02,Baja California,Ensenada,Las Minas,6,-116.43242222222224,31.321889444444444
9.710202924670744e-5,0.41668246199012826,0.7398739732113001,-0.3230944091919251,02001,020011603,02,Baja California,Ensenada,Playa Curvina (Campo Speedys),11,-114.64108416666669,30.368536944444443
9.843328253436e-4,0.4610897729670077,0.6786713265158756,-0.21659722072352428,02001,020011616,02,Baja California,Ensenada,Playa Punta Loma [Campo],6,-114.69680861111112,30.68150888888889
0.01009766446047335,0.4988615683910027,0.8956281591216809,-0.3866689262702049,02001,020011661,02,Baja California,Ensenada,El Puerto de Santo Tomás,15,-116.68092861111111,31.553051944444444
5.731780336987492e-4,0.4597490037914007,0.7201816454317072,-0.25985946360660767,02001,020011663,02,Baja California,Ensenada,Los Pulpos [Campo],6,-114.66977583333332,30.5810925
0.06371623858205536,0.4755179368503647,0.6210748372566076,-0.08184066182418759,02001,020011687,02,Baja California,Ensenada,Rancho de Dios,9,-116.6040897222222,31.72781833333333
0.02184461485966897,0.5250320825566437,0.6921276336157876,-0.14525093619947493,02001,020011740,02,Baja California,Ensenada,Salsipuedes [Inmobiliaria],5,-116.7957822222222,31.984862222222223
0.01576124425695318,0.49402173218724665,0.5160077976949881,-0.0062248212507882705,02001,020011812,02,Baja California,Ensenada,San Miguel (Cíbolas de Mar),205,-116.72439083333332,31.906791944444443
0.07243203559481184,0.4628205441066387,0.6318909022894067,-0.09663832258795613,02001,020011814,02,Baja California,Ensenada,San Miguel,10,-116.49676138888888,31.634645
9.843328253436e-4,0.4619682602863968,0.6487008056280618,-0.18574821251632134,02001,020011825,02,Baja California,Ensenada,San Pedro [Campo],4,-114.7045863888889,30.701106944444444
0.02039638858031916,0.5244056643363827,0.7276913075225074,-0.18288925460580563,02001,020011870,02,Baja California,Ensenada,Ejido Santa Rosa,149,-116.74499944444445,32.025821666666666
9.843328253436e-4,0.4619392667342148,0.6684160916565579,-0.2054924920969995,02001,020011957,02,Baja California,Ensenada,El Vergel [Campo],19,-114.70058666666668,30.695183055555557
0.07885144659418132,0.4932355353554135,0.564670879871366,0.007416102078228848,02001,020011962,02,Baja California,Ensenada,Villarino (Campo Villarino) [Campamento Turístico],44,-116.66945416666668,31.717746388888887
0.02372658194589757,0.46140877485234216,0.6436310998337964,-0.1584957430355567,02001,020012005,02,Baja California,Ensenada,Alborada [Fraccionamiento],16,-116.56932888888888,31.791755
0.01825968631751184,0.4589206127236326,0.6923680195161009,-0.2151877204749565,02001,020012007,02,Baja California,Ensenada,Lomas del Escorpión,36,-116.56071694444444,31.792639444444447
0.02265744901268028,0.460900739070236,0.6761569099329414,-0.19259872185002513,02001,020012013,02,Baja California,Ensenada,Gustavo Salgado,19,-116.56714,31.790134722222223
2.2599711950805831e-4,0.4444349013622875,0.6957655745034913,-0.2511046760216957,02001,020012134,02,Baja California,Ensenada,Los Alamitos,10,-116.50836194444445,31.77123472222222
0.12611607142857142,0.5956985156110328,0.5816110617446234,0.1402035252949808,02001,020012157,02,Baja California,Ensenada,Puerto Salina,47,-116.87838694444444,32.060090833333334
0.00500738014129701,0.5786493654230462,0.6397331375508306,-0.056076391986487395,02001,020012160,02,Baja California,Ensenada,Úrsulo Galván,99,-116.87556694444444,32.03625916666667
0.07885144659418132,0.4901255153616755,0.5815157168943379,-0.012538754938481111,02001,020012221,02,Baja California,Ensenada,Playa Dorada [Campo],74,-116.65479222222224,31.722294166666664
0.0681598945860184,0.4855136944000558,0.5927960900207073,-0.039122501034633106,02001,020012223,02,Baja California,Ensenada,Punta Estero,32,-116.62989666666664,31.695082777777777
0.08583376982650454,0.4935616844661222,0.6413280457491155,-0.06193259145648877,02001,020012224,02,Baja California,Ensenada,Rincón Punta Banda [Rincón de Ballenas],4,-116.67150944444444,31.7183225
4.989920591168557e-4,0.4411587990907345,0.7956413788450643,-0.3539835876952129,02001,020012230,02,Baja California,Ensenada,Puente los Novatos (La Presa),6,-116.32131638888887,31.305706666666666
0.02282771200507202,0.4600911095660244,0.7028610070783547,-0.21994218550725836,02001,020012317,02,Baja California,Ensenada,Todo Santos,88,-116.56190277777776,31.777033333333332
3.699112926658452e-4,0.5042507290425567,0.5819475035331755,-0.0773268631979529,02001,020012435,02,Baja California,Ensenada,Rancho González,16,-116.65285666666668,32.05623472222222
0.12602272727272726,0.4806612905103166,0.39042560968042234,0.21625840810262148,02001,020012465,02,Baja California,Ensenada,El Rosario,6,-116.58051305555556,32.07582027777778
0.02184461485966897,0.5013992894679242,0.6220279371475762,-0.09878403281998305,02001,020012487,02,Baja California,Ensenada,Ejido Ley Federal de Reforma Agraria (El Tigre),87,-116.73271,31.94878138888889
0.02184461485966897,0.5040388887119903,0.6150437453102242,-0.08916024173856496,02001,020012488,02,Baja California,Ensenada,El Milagro,10,-116.73543027777778,31.963649722222225
0.01905421268130768,0.49710931260406543,0.5704477233652283,-0.054284198079855184,02001,020012502,02,Baja California,Ensenada,Villas de San Miguel,68,-116.73816666666669,31.906741666666665
0.00882178853786565,0.5661392132595924,0.6052803318801279,-0.03031933008266985,02001,020012691,02,Baja California,Ensenada,Baja Mar San Diego,134,-116.87128194444443,32.0197125
0.00424433620801548,0.5806835548891689,0.6893294941822047,-0.10440160308502033,02001,020012693,02,Baja California,Ensenada,Ejido Ensenada,16,-116.86614888888889,32.04494722222222
1.2603422007926787e-5,0.4491812950658545,0.5646794799280208,-0.11548558144015836,02001,020012729,02,Baja California,Ensenada,El Conquistador,16,-116.55336305555556,31.87010888888889
0.02184461485966897,0.5031056146499414,0.5954748141905555,-0.07052458468094513,02001,020012776,02,Baja California,Ensenada,Playa Saldamando,3,-116.75449027777778,31.928319444444444
0.00191649575038471,0.4615718954550982,0.6200601964823365,-0.15657180527685355,02001,020012870,02,Baja California,Ensenada,El Veladero (Ejido Nacionalista),612,-116.54480083333333,31.70734472222222
0.00179414364721451,0.45279834014083126,0.5681298891451207,-0.11353740535707496,02001,020012978,02,Baja California,Ensenada,Rancho Aguacaliente (Baja Country Club),132,-116.53459416666666,31.764161666666663
0.01307875380792047,0.44434050080111415,0.6116871699783462,-0.15426791536931156,02001,020013122,02,Baja California,Ensenada,Ejido 27 de Enero,495,-116.20153861111112,31.087761944444445
0.0032813924827829,0.48224404868759585,0.6231787802956172,-0.13765333912523847,02001,020013151,02,Baja California,Ensenada,El Escondido,32,-116.67071361111113,31.936771666666665
0.00347355481721009,0.48225322772496887,0.6784484013530755,-0.19272161881089656,02001,020013152,02,Baja California,Ensenada,Estación Victoria,21,-116.67137861111112,31.935455555555556
0.08224592989694786,0.49826959712620805,0.5982459242386804,-0.017730397215524496,02001,020013170,02,Baja California,Ensenada,Campo Número Siete,17,-116.71178305555556,31.73717055555556
0.07885144659418132,0.49709212997209046,0.5766010504443737,-6.574738781018885e-4,02001,020013171,02,Baja California,Ensenada,Rancho Packard,61,-116.69622222222225,31.72983222222222
0.07885144659418132,0.4954881902201976,0.6497403154948184,-0.07540067868043943,02001,020013173,02,Baja California,Ensenada,Lomas del Mar,36,-116.68423777777778,31.72527111111111
0.07885144659418132,0.4966223049428614,0.6368740789082292,-0.0614003273711865,02001,020013174,02,Baja California,Ensenada,Puerto Escondido,54,-116.69419055555556,31.72109472222222
0.07859149504129061,0.48372633776051416,0.5890976831681588,-0.026779850366353997,02001,020013283,02,Baja California,Ensenada,Baja Beach and Tennis Club,17,-116.63685861111112,31.742275
0.0812139781913005,0.4986506512525094,0.6481163558584285,-0.06825172641461863,02001,020013329,02,Baja California,Ensenada,Campo Número Cinco,8,-116.722295,31.729470555555555
5.731780336987492e-4,0.4580703041096056,0.7682262440711997,-0.3095827619278953,02001,020013340,02,Baja California,Ensenada,San José [Campo],6,-114.68431277777778,30.598395555555555
0.00311362356523677,0.45616104803708857,0.5778438202684479,-0.11856914866612261,02001,020013353,02,Baja California,Ensenada,Santa Clara,16,-116.54447194444444,31.757384166666668
0.02071448184117438,0.4597195651927707,0.655252272784601,-0.17481822575065592,02001,020013355,02,Baja California,Ensenada,Escorpión [Centro Recreativo],618,-116.56195111111111,31.784047500000003
0.00483913860220893,0.4801246684036152,0.5801237711700786,-0.09515996416425454,02001,020013368,02,Baja California,Ensenada,Artículo Ciento Quince,1578,-116.575,32.081388888888895
9.710645904675504e-5,0.4565862573322872,0.5916763910933733,-0.13499302730203938,02001,020013381,02,Baja California,Ensenada,Ejido el Ajusco,469,-116.42178666666668,31.58338361111111
0.03938856954682281,0.5022981810453723,0.6412785768617295,-0.09959182626953444,02001,020013460,02,Baja California,Ensenada,Familia González,15,-116.64944444444446,32.05444444444444
6.241677431256341e-4,0.4578068493184337,0.6989709733110012,-0.2405399562494419,02001,020013555,02,Baja California,Ensenada,San Antonio,11,-114.69875416666667,30.624356388888888
0.02730977921550059,0.4757181409506918,0.6632259934620275,-0.16019807329583513,02001,020013606,02,Baja California,Ensenada,Brisas del Mar,13,-116.59229138888888,31.692404166666662
0.01009766446047335,0.4964910749136293,0.8435962857058804,-0.33700754633177776,02001,020013627,02,Baja California,Ensenada,Punta Clara,19,-116.65384361111111,31.530263055555555
4.989920591168557e-4,0.462997933288494,0.6431110316501372,-0.17961410630252633,02001,020013639,02,Baja California,Ensenada,Malibú Beach (Parcela 31),19,-116.3575125,31.238341666666667
0.0011805427622421,0.49124880702654655,0.5995585586708185,-0.10712920888202987,02001,020013658,02,Baja California,Ensenada,Tres Cruces [Rancho],23,-116.6768563888889,31.987372222222223
0.02633119094555877,0.46097066094886546,0.5658459572577123,-0.07854410536328804,02001,020013677,02,Baja California,Ensenada,Parcela Número Treinta y Cinco (Ejido Nacionalista),40,-116.56128305555556,31.757763611111113
0.05670486771403379,0.471897791614561,0.6081890304494385,-0.07958637112084366,02001,020013682,02,Baja California,Ensenada,Parcela Número Uno (Ejido Nacionalista),16,-116.60217527777776,31.771773055555556
0.0538749424358328,0.4711188159696071,0.5940233138065725,-0.06902955540113254,02001,020013684,02,Baja California,Ensenada,Parcela Número Tres (Santa María),17,-116.59772055555555,31.767486388888887
0.05080000196806873,0.4698235511379248,0.5503722672106062,-0.02974871410461266,02001,020013685,02,Baja California,Ensenada,Carrillo (Parcela Cinco) [Rancho],10,-116.59330416666666,31.768521944444444
0.048613619996286,0.4687057849546675,0.4997292116830054,0.01759019326794814,02001,020013687,02,Baja California,Ensenada,Parcela Tres (Ejido Nacionalista),19,-116.5890461111111,31.76767111111111
0.04763535203700677,0.4682229319641349,0.6086195796661773,-0.09276129566503566,02001,020013688,02,Baja California,Ensenada,Parcela Número Seis (Ejido Nacionalista),8,-116.58745333333331,31.76815694444444
0.0950960003554961,0.4670739838237389,0.5348410191095782,0.027328965069656874,02001,020013689,02,Baja California,Ensenada,Parcela Siete (Ejido Nacionalista),10,-116.58401027777778,31.770471666666666
0.0950960003554961,0.46882647622958046,0.48896620304658034,0.07495627353849621,02001,020013690,02,Baja California,Ensenada,Parcela Siete (Ejido Nacionalista),8,-116.58862111111112,31.763029166666666
0.04834407334048862,0.46829604325239726,0.5975813850824873,-0.08094126848960137,02001,020013691,02,Baja California,Ensenada,Parcela Ocho (Ejido Nacionalista),47,-116.58686083333332,31.763425555555557
0.04483571821534833,0.46622845458707496,0.580756457700961,-0.06969228489853763,02001,020013692,02,Baja California,Ensenada,Parcela Nueve (Ejido Nacionalista),95,-116.58010888888889,31.764283055555556
0.05492317623481066,0.4719227250691377,0.6801517622616283,-0.15330586095767995,02001,020013696,02,Baja California,Ensenada,Parcela Número Trece (Ejido Nacionalista),25,-116.5972222222222,31.75027777777778
0.04376751113143709,0.4656439294042211,0.7001318348287477,-0.1907203942930895,02001,020013699,02,Baja California,Ensenada,Parcela Quince (Ejido Nacionalista),15,-116.57790944444444,31.76167111111111
0.03621800168035204,0.4634970551093468,0.5580523672066603,-0.05833731041696144,02001,020013700,02,Baja California,Ensenada,Parcela Dieciséis (Ejido Nacionalista),13,-116.57120916666666,31.76445861111111
0.04938421038277526,0.46868700432681215,0.57333562343923306,-0.055264408729645664,02001,020013706,02,Baja California,Ensenada,Parcela Número Cuarenta y Tres (Ejido Nacionalista),15,-116.58706555555555,31.75478111111111
0.04705906877206312,0.46703089010700705,0.5393519335963063,-0.025261974717236124,02001,020013707,02,Baja California,Ensenada,Parcela Ciento Veinte (Ejido Nacionalista),13,-116.58143722222222,31.754939722222225
0.04487751447719359,0.4659645399087095,0.5419665377934029,-0.031124483407499737,02001,020013708,02,Baja California,Ensenada,Colonia Santa Isabel (Cañón San Carlos),332,-116.578065,31.75632138888889
0.03544594754165064,0.4632525737479199,0.5367130703600813,-0.03801454907051077,02001,020013711,02,Baja California,Ensenada,Parcela Treinta y Dos (Ejido Nacionalista),53,-116.56896583333332,31.756732777777778
0.02992882655492641,0.4618412914696059,0.553798893856155,-0.062028775831622696,02001,020013714,02,Baja California,Ensenada,Parcela Treinta y Cuatro (Ejido Nacionalista),21,-116.5642286111111,31.757426666666667
0.02380310886038735,0.4602656876536878,0.550176308256166,-0.0661075117420909,02001,020013717,02,Baja California,Ensenada,Parcela Número Treinta y Seis (Triple A),32,-116.55913472222224,31.758795833333338
0.04454293013401242,0.4658370860722488,0.49697904483166566,0.013400971374595505,02001,020013724,02,Baja California,Ensenada,Parcela Número Cuarenta y Siete (Ejido Nacionalista),8,-116.57730833333332,31.754735555555555
0.04000904892555003,0.46449565945448035,0.5142851305933536,-0.009780422213323203,02001,020013725,02,Baja California,Ensenada,Parcela Cuarenta y Ocho (Ejido Nacionalista),13,-116.57290555555556,31.755368611111113
0.03575233733925994,0.4633660644477869,0.5415465646687677,-0.04242816288172091,02001,020013726,02,Baja California,Ensenada,Parcela Cuarenta y Nueve (Ejido Nacionalista),22,-116.56913333333333,31.75579861111111
0.03102554674952663,0.46213456342206616,0.5844144317678658,-0.091254321596273,02001,020013727,02,Baja California,Ensenada,Parcela Número Cincuenta (Ejido Nacionalista),52,-116.56495055555555,31.75627666666667
0.01415020662616625,0.4583874172123006,0.5614379460670624,-0.08890032222859562,02001,020013730,02,Baja California,Ensenada,Parcela Número Cincuenta y Tres (Ejido Nacionalista),14,-116.55207222222222,31.756965555555556
0.05428144019544355,0.4721214068818371,0.5877947860347396,-0.06139193895745887,02001,020013732,02,Baja California,Ensenada,Parcela Número Cincuenta y Siete (Familia Arce),80,-116.59671138888888,31.743323611111112
0.05009909924452788,0.4695777382001892,0.5667832012859036,-0.047106363841186494,02001,020013733,02,Baja California,Ensenada,Parcela Número Cincuenta y Ocho (Ejido Nacionalista),17,-116.58831722222222,31.74508666666667
0.02566727677080113,0.4614112473229922,0.6141079367520287,-0.12702941265823536,02001,020013738,02,Baja California,Ensenada,Parcela Número Sesenta y Cuatro (Ejido Nacionalista),291,-116.56063555555556,31.748701944444445
0.02024422815737693,0.4603031704902081,0.7361437580196444,-0.2555963593720594,02001,020013740,02,Baja California,Ensenada,Parcela Número Sesenta y Seis (Ejido Nacionalista),20,-116.55681944444444,31.748524444444445
0.06342627470802659,0.4748786925478638,0.5099295187430007,0.028375448512889645,02001,020013741,02,Baja California,Ensenada,Parcela Número Sesenta y Siete (Las Palmas),14,-116.60395222222222,31.73531138888889
0.05005483686614667,0.4696238623866859,0.5538014931901543,-0.03412279393732165,02001,020013742,02,Baja California,Ensenada,Parcela Número Setenta (Ejido Nacionalista),17,-116.58816138888888,31.74304638888889
0.04327750324072731,0.46569160703528045,0.6307697428086338,-0.12180063253262607,02001,020013744,02,Baja California,Ensenada,Colonia Benito Juárez,303,-116.57455055555556,31.74210638888889
0.0370237146456238,0.46414294404221185,0.6394069787493869,-0.1382403200615513,02001,020013746,02,Baja California,Ensenada,Don Loreto (Parcela Setenta y Siete) [Rancho],16,-116.56951527777775,31.744253333333333
0.03257258315553065,0.4630488777679658,0.6111441623652555,-0.11552270144175902,02001,020013747,02,Baja California,Ensenada,Parcela Setenta y Ocho (Ejido Nacionalista),17,-116.56581722222222,31.745145
0.05296242072529127,0.4721355550089024,0.6155231483414443,-0.09042517260725058,02001,020013749,02,Baja California,Ensenada,Alegre [Rancho],9,-116.59522027777776,31.73569416666667
0.05684059079610823,0.47364152194120385,0.5809659573729172,-0.05048384463560518,02001,020013751,02,Baja California,Ensenada,Parcela Número Ochenta y Cinco (Ejido Nacionalista),25,-116.59836166666666,31.72914833333333
0.05027544785783101,0.4709568374717053,0.6468127927430706,-0.12558050741353421,02001,020013752,02,Baja California,Ensenada,Sandoval (Parcela Noventa) [Rancho],17,-116.58976166666666,31.73031083333333
0.07017209856803157,0.4787936620449607,0.6195122864629717,-0.07054652584997945,02001,020013753,02,Baja California,Ensenada,Victoria (Parcela Noventa y Tres) [Rancho],8,-116.61347277777776,31.722198888888887
0.05629661978504699,0.47371611858667906,0.5326918837636662,-0.002679145391940141,02001,020013755,02,Baja California,Ensenada,Parcela Noventa y Seis (Ejido Nacionalista),7,-116.59777666666666,31.725993055555556
0.04951058196153154,0.4709436278932631,0.5464785098718992,-0.02602430001710454,02001,020013756,02,Baja California,Ensenada,Parcela Noventa y Ocho,32,-116.5883572222222,31.72595611111111
0.04850730565581394,0.4702814467083522,0.6028262371985583,-0.08403748483439222,02001,020013760,02,Baja California,Ensenada,Parcela Número Ciento Cinco (Ejido Nacionalista),294,-116.58582083333332,31.725280555555553
0.07161829194204523,0.4818191507511139,0.7519134445403629,-0.1984760018472037,02001,020013763,02,Baja California,Ensenada,Mi Ranchito,15,-116.62119805555557,31.712509166666667
0.07331310927736591,0.4830961465770971,0.6487280785584232,-0.09231882270396019,02001,020013765,02,Baja California,Ensenada,Parcela Número Ciento Trece (Ejido Nacionalista),13,-116.62527916666666,31.7111425
0.0697519843193228,0.48100447930772466,0.6134776257557334,-0.06272116212868595,02001,020013768,02,Baja California,Ensenada,Parcela Número Ciento Quince (Ejido Nacionalista),11,-116.6183761111111,31.71229472222222
0.05003846844160454,0.4724918033957071,0.6661082487748284,-0.14357797693751673,02001,020013770,02,Baja California,Ensenada,Parcela Número Ciento Diecisiete (Rancho Lucero),70,-116.5914936111111,31.71784111111111
0.04183409275485131,0.46875123488111137,0.5503989381153322,-0.0398136104793696,02001,020013773,02,Baja California,Ensenada,Parcela Número Ciento Veinte (Ejido Nacionalista),19,-116.5778272222222,31.7180875
0.0448065986891199,0.4694349514515293,0.6449724329150818,-0.13073088277443257,02001,020013774,02,Baja California,Ensenada,Parcela Ciento Veinticuatro (Ejido Nacionalista),33,-116.58032083333332,31.71791861111111
0.12337769326878131,0.47897200121599126,0.5877257143957797,0.014623980088992905,02001,020013776,02,Baja California,Ensenada,Parcela Ciento Veintinueve (Ejido Nacionalista),25,-116.61137388888888,31.71170111111111
0.12337769326878131,0.47520011883616936,0.5979167529943925,6.610591105581376e-4,02001,020013777,02,Baja California,Ensenada,Parcela Ciento Veintinueve (Ejido Nacionalista),14,-116.5995022222222,31.714089722222223
0.05394852533537542,0.4739898857815202,0.5858773006512343,-0.05793888953433868,02001,020013778,02,Baja California,Ensenada,Parcela Ciento Treinta y Dos (Ejido Nacionalista),14,-116.59561333333332,31.714625833333333
0.0475448726196214,0.4715558723561791,0.580874485515777,-0.06177374053997653,02001,020013780,02,Baja California,Ensenada,Parcela Ciento Treinta y Cuatro (Ejido Nacionalista),20,-116.58693083333333,31.714569444444443
0.04271400656298153,0.4702770421456642,0.5530093947131133,-0.04001834600446752,02001,020013781,02,Baja California,Ensenada,Parcela Número Ciento Treinta y Tres (Ejido Nacionalista),9,-116.58138888888888,31.712777777777777
0.06603192035169404,0.4813958816029872,0.5819013613441064,-0.0344735593894252,02001,020013783,02,Baja California,Ensenada,Parcela Número Ciento Treinta y Nueve (Ejido Nacionalista),47,-116.61741,31.704010277777776
0.06323480378843678,0.4797753365805335,0.597057490721339,-0.05404735035236863,02001,020013784,02,Baja California,Ensenada,Parcela Número Ciento Cuarenta (Ejido Nacionalista),141,-116.61155638888889,31.7037525
0.05300055456402813,0.47539139789914214,0.649861136094007,-0.1214691836308367,02001,020013795,02,Baja California,Ensenada,Parcela Ciento Sesenta (Ejido Nacionalista),4,-116.59628055555557,31.704910277777778
0.03393827714763352,0.4721779908426249,0.6007416169611411,-0.0946253489708827,02001,020013797,02,Baja California,Ensenada,Parcela Número Ciento Cincuenta y Siete (Ejido Nacionalista),10,-116.5844325,31.7032375
0.02726068362433134,0.4709175235462342,0.5298264833917027,-0.031648276221137195,02001,020013798,02,Baja California,Ensenada,Parcela Número Ciento Cincuenta y Ocho (Ejido Nacionalista),14,-116.58055555555556,31.704722222222223
0.0208863157807892,0.4689469119368684,0.5939425708769263,-0.10410934315926867,02001,020013799,02,Baja California,Ensenada,Parcela Ciento Sesenta y Cinco (Ejido Nacionalista),8,-116.5748322222222,31.708704166666667
0.06489999524297634,0.4829754692091954,0.6310722286737598,-0.08319676422158806,02001,020013801,02,Baja California,Ensenada,Parcela Número Ciento Sesenta y Dos (Ejido Nacionalista),9,-116.62066277777777,31.69718444444445
0.06022068428608498,0.47984091519444017,0.6045280439407658,-0.06446644446024064,02001,020013802,02,Baja California,Ensenada,Tamayo [Rancho],12,-116.60964722222222,31.69867111111111
0.05933985666201977,0.4813942476683076,0.5642970332849192,-0.02356292895459189,02001,020013804,02,Baja California,Ensenada,Parcela Número Ciento Sesenta y Ocho (Ejido Nacionalista),25,-116.61379722222222,31.694105
0.0350074628844222,0.47359346896858734,0.7007986646500908,-0.1921977327970812,02001,020013805,02,Baja California,Ensenada,Santa Juquila [Colonia],629,-116.58798555555556,31.699986388888888
0.05871716701158595,0.4835377353515384,0.7230133154959029,-0.18075841313277852,02001,020013807,02,Baja California,Ensenada,Parcela Número Ciento Setenta y Cinco (Ejido Nacionalista),30,-116.6202847222222,31.68952722222222
0.05283078494145261,0.483493147525467,0.730290496805199,-0.1939665643382793,02001,020013812,02,Baja California,Ensenada,Parcela Número Ciento Ochenta y Siete (Ejido Nacionalista),23,-116.6191425,31.68543777777778
0.00113466338337973,0.46802398051417654,0.6381110272105828,-0.16895238331302648,02001,020013815,02,Baja California,Ensenada,Parcela Número Doscientos Treinta y Uno (Rancho el Refugio del Viejo),555,-116.56083361111112,31.68961138888889
0.02184461485966897,0.5271996126554348,0.6674535209081812,-0.11840929339307749,02001,020013825,02,Baja California,Ensenada,Pitones,11,-116.76337916666668,32.01752888888889
9.843328253436e-4,0.4597640879454361,0.7183709580345213,-0.2576225372637416,02001,020013828,02,Baja California,Ensenada,Ejido Delicias,76,-114.71071,30.687500833333335
1.2603422007926787e-5,0.4626431470981281,0.5605820252560163,-0.09792627473588028,02001,020013870,02,Baja California,Ensenada,Rancho Cimarrón,6,-116.6101425,31.9080625
0.05198358628384408,0.4742697179896894,0.6421684579875907,-0.11591515371405725,02001,020013888,02,Baja California,Ensenada,El Águila (Ejido Nacionalista),6,-116.59429416666666,31.70922277777778
4.743511771285892e-4,0.47568109374184914,0.6764380958549081,-0.2002826509359304,02001,020013920,02,Baja California,Ensenada,El Mirador,28,-116.57814305555556,31.665616666666665
0.03075599037654451,0.4654868512724108,0.657046299871541,-0.16080345822258563,02001,020013922,02,Baja California,Ensenada,El Nopal,14,-116.58678916666666,31.80327666666667
2.408080717470982e-4,0.4035759768428165,0.7367097222514387,-0.33289293733687514,02001,020013963,02,Baja California,Ensenada,Villas Mar de Cortez (Rancho Grande),13,-114.4137238888889,29.792599444444445
0.00207887357272732,0.45471868625625217,0.585014618173143,-0.12821705834416353,02001,020014068,02,Baja California,Ensenada,San Carlos (Ejido Nacionalista),505,-116.54025388888888,31.760074444444445
0.0507615311038171,0.469800388539636,0.5668574526959005,-0.04629553305244738,02001,020014075,02,Baja California,Ensenada,San Isidro (Ejido Nacionalista),13,-116.59255972222222,31.765988055555557
1.2603422007926787e-5,0.45085715650289365,0.6973364740167833,-0.24646671409188176,02001,020014128,02,Baja California,Ensenada,San Gabriel,44,-116.56602916666668,31.90461305555555
0.06782004806436913,0.4804362253582157,0.5633791358105615,-0.015122862387976777,02001,020014182,02,Baja California,Ensenada,Rancho Verdugo (Ejido Nacionalista),6,-116.61612055555555,31.710990833333337
0.06509768616104886,0.4756216741237049,0.5609767980028652,-0.020257437718111393,02001,020014183,02,Baja California,Ensenada,Familia Lara (Ejido Nacionalista),39,-116.60519472222222,31.73079
0.03065885693965753,0.4705726302559457,0.5806162384381746,-0.07938475124257138,02001,020014186,02,Baja California,Ensenada,Familia Bravo (Ejido Nacionalista),8,-116.58009916666666,31.706899166666663
0.01459094463812023,0.4902247536465293,0.5583416091328729,-0.053525910848223335,02001,020014317,02,Baja California,Ensenada,Los Pirules,7,-116.70808,31.910184444444443
0.07769464183705331,0.4977612417880112,0.6308951319898497,-0.0554392483647852,02001,020014342,02,Baja California,Ensenada,Campo Número Nueve,7,-116.71088944444443,31.716982777777776
2.2865888555120145e-4,0.4768775187610772,0.7968257773231383,-0.3197195996765099,02001,020014390,02,Baja California,Ensenada,Playa el Porvenir,66,-114.70490055555555,30.826579166666665
0.00849700359962666,0.4824622299965919,0.7047174507276067,-0.21375821713138815,02001,020014444,02,Baja California,Ensenada,El Morro,605,-115.18694444444444,28.0425
0.06961730381203411,0.48627540530641616,0.6034561766305232,-0.047563467512072966,02001,020014523,02,Baja California,Ensenada,II Sección Ejido Esteban Cantú,245,-116.63290472222222,31.694926944444443
0.02054823855872462,0.5270802110719296,0.6981120249895545,-0.15048357535890022,02001,020014549,02,Baja California,Ensenada,Rancho Carrillo,12,-116.75152916666669,32.0260825
4.9402382437733e-5,0.46299298916013254,0.6049243300010614,-0.14188193845849112,02001,020014552,02,Baja California,Ensenada,Malacara [Rancho],46,-116.54081805555556,31.694213333333337
0.06657590018217671,0.4772465663147392,0.6689194686505786,-0.1250970021536627,02001,020014592,02,Baja California,Ensenada,Ibarra [Rancho],62,-116.60823,31.72191638888889
0.125,0.47513900155648825,0.545274182548182,0.0548648190083062,02001,020014634,02,Baja California,Ensenada,El Salitral,533,-116.60544472222222,31.738131666666668
0.01022380200379625,0.4578687908046984,0.5775501485550086,-0.109457555746514,02001,020014635,02,Baja California,Ensenada,Colonia Esperanza (Cañón San Carlos),878,-116.54993833333332,31.755785555555555
0.0576836684669338,0.4726125186141528,0.660510336452566,-0.13021414937147935,02001,020014638,02,Baja California,Ensenada,Brisas del Mar [Colonia],58,-116.60132527777778,31.7603125
0.0640972121832957,0.474771481934918,0.6673959428447778,-0.12852724872656407,02001,020014656,02,Baja California,Ensenada,Rancho Jesús Valdez,13,-116.60721305555556,31.751898611111113
0.00879770689203401,0.4622868274610209,0.6961616689915795,-0.22507713463852458,02001,020014778,02,Baja California,Ensenada,La Escondida,20,-116.5559125,31.72307
0.09209683544404586,0.4504284735090833,0.5604119464940804,-0.01788663754095121,02001,020014877,02,Baja California,Ensenada,Ninguno,14,-116.56123083333333,31.881564444444447
0.02232759995303026,0.4634737243764176,0.6337135866416264,-0.14791226231217852,02001,020014900,02,Baja California,Ensenada,San Jorge Uno,25,-116.58128277777776,31.81062138888889
0.05753783308912232,0.4720831946677024,0.634271294164954,-0.10465026640812924,02001,020014903,02,Baja California,Ensenada,Las Brisas Dos,36,-116.60373722222222,31.774002777777778
0.05958605275668045,0.4736393420711454,0.6770622243027598,-0.14383682947493392,02001,020014904,02,Baja California,Ensenada,Fraccionamiento Alvarado,35,-116.6033936111111,31.75240611111111
0.03938856954682281,0.4643643425828699,0.6265398516419594,-0.1227869395122666,02001,020014908,02,Baja California,Ensenada,Familia González,22,-116.57358416666666,31.76108138888889
0.03739773513209689,0.4640640884672022,0.6212384065656164,-0.11977658296631721,02001,020014909,02,Baja California,Ensenada,San José [Granja],20,-116.57348305555556,31.767858888888888
0.01961621474777762,0.4969410468179429,0.536575147517373,-0.020017885951652548,02001,020014918,02,Baja California,Ensenada,Lomas de San Miguel,27,-116.73594555555556,31.910619444444443
0.00517742610800684,0.49547235691815567,0.6754195389351194,-0.17476975590895694,02001,020014920,02,Baja California,Ensenada,San Marcos,6,-116.68660333333334,31.996243333333336
0.01571439482029077,0.4947595905402955,0.5524917529669701,-0.04201776760638376,02001,020014925,02,Baja California,Ensenada,Balcones Cíbolas del Mar,152,-116.72882888888888,31.90255222222222
0.01606506177004237,0.49548778316425246,0.4926885057608068,0.018864339173488065,02001,020014930,02,Baja California,Ensenada,Playa Cibola del Mar,8,-116.73240333333334,31.90183972222222
0.00473315013175512,0.46001619226311097,0.6427379651849496,-0.17798862279008354,02001,020014943,02,Baja California,Ensenada,Reforma el Veladero,756,-116.55205305555556,31.7322875
1.2603422007926787e-5,0.4469545046346105,0.5990807469999824,-0.15211363894336394,02001,020014965,02,Baja California,Ensenada,Rancho 3 Hermanos,5,-116.54971444444443,31.8855925
0.00879770689203401,0.4623060972665732,0.6819235352758091,-0.21081973111720187,02001,020014972,02,Baja California,Ensenada,La Escondida,246,-116.55646166666666,31.723961944444444
0.03284917536204942,0.47963368917804455,0.6581419264086568,-0.1456590618685628,02001,020014973,02,Baja California,Ensenada,Brechas el Mirador,247,-116.60352944444443,31.68346194444445
0.01949355183377681,0.46216043906991994,0.6394767629309973,-0.15782277202730055,02001,020014980,02,Baja California,Ensenada,San Marino,61,-116.57714055555554,31.81214444444445
9.806142741945831e-4,0.4626265530980124,0.6415220553088585,-0.1779148879366515,02001,020015025,02,Baja California,Ensenada,Villas del Mar,216,-116.54503055555556,31.701116666666667
1.774575617302307e-5,0.46313078818777736,0.5802442645476653,-0.11709573060371492,02001,020015026,02,Baja California,Ensenada,Familia Laurian,19,-116.538265,31.690450277777774
0.06545465486804429,0.47789496843786367,0.5664427388303407,-0.023093115524432717,02001,020015027,02,Baja California,Ensenada,Rancho Liborio Silva,14,-116.60878277777778,31.715901666666667
0.03608679811648804,0.4811755411376196,0.6229943860574149,-0.10573204680330717,02001,020015028,02,Baja California,Ensenada,Parcela Ciento Setenta y Cinco A,11,-116.60859111111112,31.680869444444447
0.04268064312118848,0.47989538610097093,0.7291113366082604,-0.20653530738610104,02001,020015029,02,Baja California,Ensenada,Parcela Doscientos Seis,38,-116.6054347222222,31.6859225
0.01743278095602717,0.4793600058023978,0.7447779334491665,-0.24798514669074156,02001,020015037,02,Baja California,Ensenada,Colinas del Pedregal,130,-116.6005447222222,31.678778611111113
2.1565120361814044e-4,0.4629625024175727,0.7460960434431289,-0.282917889821938,02001,020015086,02,Baja California,Ensenada,Costa Verde,15,-114.65417444444444,30.5524725
0.0198965768644246,0.5489595836104677,0.6049805936368174,-0.03612443316192515,02001,020015122,02,Baja California,Ensenada,Lindavista,13,-116.85695277777778,31.99769
0.00255221675436902,0.4916941831079146,0.6175084857765005,-0.12326208591421695,02001,020015154,02,Baja California,Ensenada,JC [Rancho],8,-116.67888361111112,31.986370555555556
0.07885137723129965,0.4904554974901061,0.5918673971963632,-0.022560522474957434,02001,020015155,02,Baja California,Ensenada,Coronel Esteban Cantú [Tercera Sección],31,-116.65361777777778,31.712650555555555
0.03265690727505971,0.4815015219014776,0.6656751740904355,-0.15151674491389822,02001,020015161,02,Baja California,Ensenada,El Pedregal,23,-116.60918444444444,31.67905111111111
0.02040343143736294,0.4771282356038751,0.6261032551468086,-0.12857158810557062,02001,020015162,02,Baja California,Ensenada,El Sauco,10,-116.5951972222222,31.686099722222224
0.07217625625412309,0.4864408671601474,0.6134095272599339,-0.05479240384566342,02001,020015163,02,Baja California,Ensenada,La Hermosa del Sauco,56,-116.63454166666668,31.697888055555556
0.06466324852847084,0.4764221301560347,0.5811473135902766,-0.040061934905771035,02001,020015164,02,Baja California,Ensenada,Monte de Sión,27,-116.60569944444444,31.72254388888889
0.09209683544404586,0.4895451353007534,0.6355730327000235,-0.053931061955224235,02001,020015165,02,Baja California,Ensenada,Ninguno,10,-116.64689055555556,31.695135555555556
0.07740902273558692,0.4879337931811608,0.5840717881707729,-0.018728972254025145,02001,020015166,02,Baja California,Ensenada,Naomy [Mini Hotel],20,-116.6416775,31.70674888888889
0.04936026238547634,0.4690580721233777,0.5723877677740934,-0.0539694332652394,02001,020015167,02,Baja California,Ensenada,Rancho Virginia del Mar,19,-116.58589083333332,31.740626944444447
0.07243203559481184,0.47833402755000126,0.66072208259257,-0.1099560194477569,02001,020015168,02,Baja California,Ensenada,San Miguel,327,-116.61372527777776,31.72939222222222
0.06518650848477822,0.4753730376362521,0.5738969252304821,-0.03333737910945178,02001,020015170,02,Baja California,Ensenada,Villa del Mar [Colonia],293,-116.60529194444445,31.73435638888889
1.2603422007926787e-5,0.44711834941309153,0.597521488309857,-0.1503905354747575,02001,020015171,02,Baja California,Ensenada,Che Guevara [Fraccionamiento],88,-116.54755805555556,31.875101666666662
0.00192719760320188,0.45800342229997737,0.775820504111545,-0.3158898842083658,02001,020015185,02,Baja California,Ensenada,El Rincón del Veladero,60,-116.54399444444444,31.73000861111111
0.09209683544404586,0.46258214118918367,0.6159016564146702,-0.06122267978144069,02001,020015198,02,Baja California,Ensenada,Ninguno,42,-116.55670166666668,31.72247944444444
1.4012679860423392e-4,0.46455680288021217,0.5981547595110854,-0.133457829832269,02001,020015200,02,Baja California,Ensenada,Nueva España,249,-116.5457325,31.69131972222222
0.04700317354446233,0.46902203708715334,0.528086280985946,-0.01206107035433035,02001,020015202,02,Baja California,Ensenada,Parcela Número Ciento Diez,19,-116.58155111111112,31.72598833333333
0.04752517042239906,0.46918730367128586,0.5226921066674954,-0.005979632573810512,02001,020015204,02,Baja California,Ensenada,Parcela Número Cien [Ejido Nacionalista],7,-116.5825997222222,31.727361666666663
2.7538954649472883e-5,0.422993544607765,0.8291186349226949,-0.4060975513602804,02001,020015260,02,Baja California,Ensenada,Santa Teresa (Piedra de Oro),6,-114.64112777777778,30.38724722222222
0.0803431290946026,0.4980378972239072,0.6343956964556101,-0.056014670137100375,02001,020015264,02,Baja California,Ensenada,Ninguno [Jesús Cárdenas],11,-116.70923611111112,31.733252777777775
0.00338459550570276,0.46105114491612426,0.6571436730771065,-0.19270793265527952,02001,020015277,02,Baja California,Ensenada,Los Girasoles,60,-116.55268333333332,31.72555
0.05194540487044214,0.4711830058519705,0.6086593907238954,-0.08553098000148274,02001,020015287,02,Baja California,Ensenada,Arce [Colonia],244,-116.59309444444445,31.74084722222222
0.043470736076704,0.475055236639086,0.7707209556587626,-0.2521949829429726,02001,020015289,02,Baja California,Ensenada,Parcela Número 177,15,-116.59268888888889,31.699313888888888
0.05736684369242271,0.4730758552720135,0.6487551506175273,-0.11831245165309112,02001,020015297,02,Baja California,Ensenada,Fortunes Fashions Baja [Fábrica],96,-116.60043333333331,31.74581388888889
1.2603422007926787e-5,0.4556803823946036,0.6326150889096384,-0.1769221030930268,02001,020015299,02,Baja California,Ensenada,Rancho Verde (Cañon Ensenada),19,-116.58453055555556,31.91695277777778
0.00610362764756485,0.5765032642691272,0.6647008031010753,-0.08209391118438314,02001,020015328,02,Baja California,Ensenada,Úrsulo Galván Segunda Sección,34,-116.86790111111112,32.037615833333334
0.06079328934989595,0.47722310114589833,0.6052522571718897,-0.06723586667609538,02001,020015459,02,Baja California,Ensenada,Alcalá [Rancho],10,-116.6043525,31.708379444444443
0.05860618422267166,0.4730173335910363,0.6614221920277454,-0.12979867421403746,02001,020015460,02,Baja California,Ensenada,Colonia Bienestar,93,-116.6025675,31.75948861111111
0.06384973290633575,0.479525328315465,0.589405319825784,-0.04603025860398324,02001,020015461,02,Baja California,Ensenada,Cárdenas,26,-116.61149527777778,31.705702777777777
9.519469232069522e-4,0.471010898412729,0.6844779831549999,-0.21251513781906395,02001,020015462,02,Baja California,Ensenada,Miramar [Rancho],41,-116.56946527777778,31.68323611111111
0.07254058198095815,0.4790084296487901,0.6377208894524485,-0.0861718778227003,02001,020015465,02,Baja California,Ensenada,Parcela Noventa,10,-116.61522444444444,31.72605944444444
0.00242641333624837,0.46659185166137984,0.5995790654212477,-0.1305608004236195,02001,020015467,02,Baja California,Ensenada,Arroyo Blanco [Rancho],8,-116.56236388888888,31.70153861111111
0.01344939757506276,0.4713143639610163,0.6198741160239669,-0.13511035448788788,02001,020015472,02,Baja California,Ensenada,Agrícola San Luis [Rancho],14,-116.5792361111111,31.697972222222223
4.955950021766527e-4,0.4680367097787789,0.7606829967743926,-0.29215069199343696,02001,020015474,02,Baja California,Ensenada,Los Laureles [Rancho],14,-116.55613166666666,31.68398611111111
9.0739964153729e-4,0.46906764757071107,0.6649793433597571,-0.1950042961475087,02001,020015475,02,Baja California,Ensenada,Campo de Esperanza,25,-116.56190583333331,31.684930277777777
0.00889129899987394,0.4653553487939792,0.5845768863387918,-0.11033023854493862,02001,020015477,02,Baja California,Ensenada,Santo Tomás,17,-116.549985,31.691676944444445
0.03821785902129179,0.4804761419746375,0.6472060221603032,-0.12851202116437388,02001,020015479,02,Baja California,Ensenada,Andalucía,13,-116.60667527777775,31.68310111111111
0.00464157048639501,0.4613373983800513,0.6188330829907741,-0.1528541141243278,02001,020015483,02,Baja California,Ensenada,Familia Muñiz (Colonia el Veladero),6,-116.55470638888887,31.727520277777774
0.00171180041003985,0.4656150824286287,0.660689108296605,-0.1933622254579364,02001,020015486,02,Baja California,Ensenada,Familia Cárdenas,11,-116.55519472222224,31.69662444444445
0.01906406944034902,0.459720069326196,0.6024983234202689,-0.12371418465372386,02001,020015488,02,Baja California,Ensenada,Parcela Sesenta y Siete (Las Haciendas),45,-116.5555263888889,31.75216444444445
0.01753086625142694,0.46042965152727894,0.7932847313471856,-0.3153242135684797,02001,020015496,02,Baja California,Ensenada,Zona el Veladero Manzana (Dieciséis),21,-116.55647805555556,31.7432975
0.02591487601270082,0.4606234015060273,0.6487909087452127,-0.1622526312264846,02001,020015501,02,Baja California,Ensenada,Parcela Número Dieciocho,45,-116.56198083333334,31.7653975
0.03977351718967177,0.4646429393919446,0.5584902236130596,-0.054073767031443176,02001,020015502,02,Baja California,Ensenada,Familia Vázquez,12,-116.57491,31.764556111111112
0.06111551587812797,0.47499809150274985,0.571908489178871,-0.03579488179799317,02001,020015505,02,Baja California,Ensenada,La Grava,79,-116.60175138888889,31.72519222222222
0.0679369962530711,0.47749436358452846,0.5658992458462432,-0.020467886008643577,02001,020015506,02,Baja California,Ensenada,El Antiguo Taste,9,-116.60954194444444,31.723770833333333
0.0709681660706175,0.4765766050950675,0.63556593019349,-0.08802115902780494,02001,020015525,02,Baja California,Ensenada,Comunidad Cristiana el Alfarero,17,-116.61051527777778,31.73991861111111
0.06391651037646409,0.4747548789956712,0.6607824242684023,-0.12211103489626696,02001,020015528,02,Baja California,Ensenada,Colonia Xochiltepec,30,-116.60751805555554,31.753721944444443
0.06754283110818474,0.4758190330297307,0.6598653686870644,-0.11650350454914893,02001,020015530,02,Baja California,Ensenada,Los Compadres [Rancho],9,-116.61253055555557,31.75911
0.06258505516220005,0.47444154973072034,0.6589646503496266,-0.12193804545670617,02001,020015531,02,Baja California,Ensenada,Familia Gómez (El Salitral),7,-116.607405,31.75864138888889
0.125,0.4731977406554512,0.6577570078027843,-0.05955926714733306,02001,020015532,02,Baja California,Ensenada,El Salitral,20,-116.60533138888889,31.76756444444444
0.02665568707875387,0.47728219054267784,0.7471594303698375,-0.24322155274840573,02001,020015537,02,Baja California,Ensenada,Jireh [Rancho],23,-116.59635361111113,31.687671666666667
0.02606455812767291,0.4776358308588965,0.7383728368569389,-0.23467244787036945,02001,020015539,02,Baja California,Ensenada,Parcela Doscientos Veintiuno,19,-116.59722333333332,31.686497222222226
0.05573255321642827,0.4819458089743364,0.6353944229947828,-0.09771606080401807,02001,020015540,02,Baja California,Ensenada,Parcela Ciento Ochenta y Cuatro,41,-116.6144761111111,31.68978027777778
0.05445379870507844,0.4737814487290602,0.5979152054207725,-0.06967995798663384,02001,020015542,02,Baja California,Ensenada,Familia Villegas,7,-116.59633027777777,31.71947111111111
0.05348027661235102,0.4741170300712992,0.6466942935756902,-0.11909698689203996,02001,020015546,02,Baja California,Ensenada,Quiñones [Rancho],10,-116.5952225,31.71247083333333
0.06338033593425182,0.4790918413672828,0.593391912075142,-0.05091973477360734,02001,020015551,02,Baja California,Ensenada,El Chueco,27,-116.61017,31.706255
0.0483251409556513,0.4693113075951737,0.6281119701552006,-0.11047552160437557,02001,020015552,02,Baja California,Ensenada,Huerta [Rancho],118,-116.58426222222222,31.730950555555555
0.04696083145385079,0.4707823640963043,0.6709456856700796,-0.15320249011992448,02001,020015554,02,Baja California,Ensenada,Pimentel [Rancho],41,-116.58476638888888,31.71633333333333
0.04362865816949873,0.4657019996505495,0.5592035646348054,-0.0498729068147572,02001,020015559,02,Baja California,Ensenada,Colonia los Encinos [Hacienda],13,-116.5750586111111,31.74521027777778
0.04376872638558179,0.4821227076154532,0.7914899783186455,-0.26559854431761054,02001,020015665,02,Baja California,Ensenada,Las Brechas,63,-116.61278,31.681766666666668
0.03905986848289813,0.4645061795536421,0.6139006167588886,-0.11033456872234837,02001,020015692,02,Baja California,Ensenada,Martinez [Rancho],41,-116.57121277777776,31.746909722222224
0.05106963106004914,0.4798897724978281,0.605572956570569,-0.07461355301269168,02001,020015694,02,Baja California,Ensenada,Soledad [Rancho],10,-116.60680416666666,31.689725555555555
0.04927692805129196,0.46736825746919586,0.612476023436779,-0.09583083791629121,02001,020015695,02,Baja California,Ensenada,San Carlos,15,-116.58333888888887,31.7593275
0.04178362708195668,0.4654084412554904,0.5851020029831281,-0.07790993464568097,02001,020015696,02,Baja California,Ensenada,El Palmar [Rancho],17,-116.57796,31.76817361111111
0.0394419064459308,0.4643426140273051,0.5490055497579526,-0.04522102928471672,02001,020015697,02,Baja California,Ensenada,Jardín Campestre,8,-116.57259638888888,31.75633611111111
0.00155360182435549,0.4709024932486764,0.6715892510114584,-0.1991331559384265,02001,020015763,02,Baja California,Ensenada,Parcela Doscientos Veintinueve,28,-116.57107888888888,31.686318333333332
0.04872657398644828,0.4684302099433591,0.5681741792303658,-0.05101739530055849,02001,020015769,02,Baja California,Ensenada,Parcela Setenta y Tres,17,-116.58431972222222,31.744634444444447
0.07885144659418132,0.4917753617561812,0.579729743212066,-0.009102934861703549,02001,020015907,02,Baja California,Ensenada,Campo Meneses,3,-116.66154111111112,31.718094166666663
0.00414949002829163,0.4830252642674592,0.6043343247000311,-0.11715957040428032,02001,020015921,02,Baja California,Ensenada,Familia Santana,9,-116.67836805555557,31.923615
0.02221961876585592,0.46126591832403807,0.6926686833154438,-0.20918314622554984,02001,020016454,02,Baja California,Ensenada,Familia Morales,5,-116.55926638888889,31.74293861111111
0.3753065771599345,0.6950323195186219,0.25906407909820844,0.8112748175803479,02002,020020001,02,Baja California,Mexicali,Mexicali,854186,-115.47557888888888,32.641175833333335
0.09848484848484848,0.7133052261818952,0.5586036045944747,0.253186470072269,02002,020020106,02,Baja California,Mexicali,Poblado el Caimán,33,-115.19216972222225,32.2250625
0.06312897245762712,0.6879915520244003,0.40201427089324,0.3491062535887875,02002,020020237,02,Baja California,Mexicali,Nuevo León,3776,-115.19066916666668,32.409974444444444
0.08831521739130434,0.6484285603811877,0.5232612616497144,0.21348251612277758,02002,020020243,02,Baja California,Mexicali,Poblado Sombrerete,46,-115.0570347222222,32.16567
0.5183476812313345,0.32820968127568295,0.2362388915290752,0.6103184709779422,02002,020020284,02,Baja California,Mexicali,San Felipe,17143,-114.83890138888889,31.022920277777775
0.0714297668081621,0.6953671027538232,0.5030885104859092,0.26370835907607615,02002,020020394,02,Baja California,Mexicali,Ricardo Mazón Guerrero (Colonia Baja California el Polvorín),779,-115.104525,32.240629166666665
0.2163273842721695,0.7245832375318609,0.5735231165950899,0.3673875052089405,02002,020020402,02,Baja California,Mexicali,Puente Quemado (Colonia Venustiano Carranza),44,-115.18072527777778,32.25885111111111
0.43750000000000006,0.6800689769490819,0.670680606880401,0.446888370068681,02002,020020411,02,Baja California,Mexicali,Campo Mozqueda (Colonia Terrenos Indios),19,-115.27561638888888,32.15665305555555
0.01063410153811885,0.33474567504429636,0.5049698186513251,-0.15959004206890987,02002,020020412,02,Baja California,Mexicali,Ejido Plan Nacional Agrario,808,-114.88572111111112,31.08220888888889
0.01063410153811885,0.3361406625318304,0.4800156593468526,-0.13324089527690336,02002,020020414,02,Baja California,Mexicali,Playa del Sol,29,-114.86918277777777,31.090615555555555
0.00242964007362676,0.3386035075290991,0.4680057949816304,-0.1269726473789045,02002,020020417,02,Baja California,Mexicali,Petes Camp El Paraíso,84,-114.89131416666667,31.13172388888889
0.00251334571619773,0.342476593348724,0.5832319132317908,-0.2382419741668691,02002,020020598,02,Baja California,Mexicali,Los Amigos,10,-114.8901302777778,31.175160555555557
0.07046047829909083,0.47821387127762194,0.4745068894399104,0.07416746013680242,02002,020021195,02,Baja California,Mexicali,Ejido Doctor Alberto Oviedo Mota (El Indiviso),877,-114.98299416666669,32.02547222222222
0.02572751237062861,0.3316104824601829,0.5846736202637107,-0.22733562543289926,02002,020021343,02,Baja California,Mexicali,La Hacienda,29,-114.7771413888889,30.959929444444445
0.00242964007362676,0.33848180855727705,0.40463686087102696,-0.06372541224012312,02002,020021350,02,Baja California,Mexicali,Ventana del Mar,42,-114.89932305555556,31.136746944444443
0.02484078937170856,0.3232234718177376,0.4836099234540002,-0.13554566226455406,02002,020021365,02,Baja California,Mexicali,Poblado las Minitas,451,-114.83816527777778,30.97634111111111
0.01063410153811885,0.33680613311299457,0.5174241366334068,-0.1699839019822934,02002,020021415,02,Baja California,Mexicali,Campo Pai-Pai,11,-114.87607694444443,31.101391944444448
0.01063410153811885,0.336305318662979,0.49420579639377293,-0.14726637619267507,02002,020021620,02,Baja California,Mexicali,Campo Ocotillos,28,-114.87460138888888,31.096351944444443
0.00242964007362676,0.33994576405290305,0.5323950656130909,-0.19001966148656108,02002,020021623,02,Baja California,Mexicali,Perlas [Campo],6,-114.89173972222224,31.14520027777778
0.05062524974731444,0.6698625932223742,0.5568264557372342,0.16366138723245438,02002,020021634,02,Baja California,Mexicali,Carrancita (Colonia Venustiano Carranza),87,-115.14081972222225,32.167431944444445
0.0093510411232654,0.3328760884692002,0.6576450920425296,-0.31541796245006404,02002,020021659,02,Baja California,Mexicali,Colonia Carlos Salinas de Gortari,6,-114.88495944444443,31.035731944444446
0.00242964007362676,0.34299765116463465,0.6000076851265204,-0.2545803938882589,02002,020021694,02,Baja California,Mexicali,El Dorado (Ejido Plan Nacional Agrario),113,-114.94508666666668,31.143875
0.00881189507183663,0.33304612965718144,0.4505638832143712,-0.10870585848535314,02002,020021824,02,Baja California,Mexicali,Kilómetro Ciento Ochenta y Seis,15,-114.87308472222222,31.056025833333333
0.01576255986984351,0.34042636861036046,0.643192729313587,-0.287003800833383,02002,020022089,02,Baja California,Mexicali,Vista Hermosa,8,-114.71490583333332,30.91510222222222
0.01479202105552794,0.34067675724102436,0.5967418543428995,-0.24127307604634718,02002,020022224,02,Baja California,Mexicali,Campo Lobo,10,-114.71390722222222,30.911514166666667
0.02413889710083931,0.32273520603901407,0.41937204529881333,-0.07249794215895994,02002,020022854,02,Baja California,Mexicali,Familia Zúñiga (Colonia Francisco Villa),6,-114.84244277777778,30.973265277777777
0.00242964007362676,0.3389651739729389,0.6288663875651117,-0.287471573518546,02002,020022940,02,Baja California,Mexicali,Los Médanos (Ejido Plan Nacional Agrario),57,-114.92660416666668,31.100640555555557
0.00242964007362676,0.33782761633071856,0.5444083435021588,-0.2041510870978135,02002,020022966,02,Baja California,Mexicali,Palos Verdes Norte y Sur,181,-114.90794638888887,31.106784444444447
0.00242964007362676,0.3375389068944471,0.489854061875095,-0.14988551490702112,02002,020023029,02,Baja California,Mexicali,Playa de Oro,35,-114.88977194444443,31.118894444444447
0.00242964007362676,0.3382261715128649,0.5053889491384064,-0.1647331375519147,02002,020023103,02,Baja California,Mexicali,Rancho del Sol (El Dorado),51,-114.90555027777778,31.122086666666668
0.01956048468131873,0.3261700217333631,0.44335514338382614,-0.09762463696914431,02002,020023112,02,Baja California,Mexicali,Ocotillo [Rancho],6,-114.84739583333332,31.006655277777774
0.00242964007362676,0.34079079246691957,0.6270821857984595,-0.2838617532579132,02002,020023450,02,Baja California,Mexicali,Los Viajeros (Ejido Plan Nacional Agrario),137,-114.94222472222222,31.092041388888887
0.01494504050184549,0.34027304071851916,0.5732774515260481,-0.2180593703056835,02002,020024803,02,Baja California,Mexicali,Misión los Sahuaros,12,-114.71634055555556,30.91003444444444
0.00242964007362676,0.34028700003467277,0.5537837546381729,-0.2110671145298733,02002,020024892,02,Baja California,Mexicali,La Ponderosa,6,-114.8906688888889,31.14799361111111
0.01701565097425539,0.33731759214436274,0.5781881839904677,-0.22385494087184954,02002,020024909,02,Baja California,Mexicali,Perla del Mar,9,-114.73166166666668,30.939904722222224
0.00904923853344465,0.3358694467497174,0.4816686397129051,-0.13674995442974303,02002,020024931,02,Baja California,Mexicali,De un Rancho a Otro,27,-114.89080638888888,31.095985
0.00995320661426001,0.33365006481608805,0.5008877082176213,-0.15728443678727322,02002,020024942,02,Baja California,Mexicali,Las Malvinas [Rancho],21,-114.87647805555557,31.065563611111113
0.00242964007362676,0.3380981804762386,0.5204310521599214,-0.179903231610056,02002,020024945,02,Baja California,Mexicali,Bugambilias [Rancho],10,-114.8897677777778,31.12578277777778
0.02572751237062861,0.3290716492205625,0.4938771787550062,-0.13907801716381513,02002,020024952,02,Baja California,Mexicali,Villas San Francisco [Fraccionamiento],9,-114.79792777777776,30.97025833333333
0.125,0.648393360682662,0.5619038778347816,0.21148948284788038,02002,020025128,02,Baja California,Mexicali,Familia González,10,-115.60937916666666,32.56621638888888
0.00242964007362676,0.6974098567014344,0.5932774170254854,0.10656207974957577,02002,020025138,02,Baja California,Mexicali,La Ponderosa,66,-115.28732583333333,32.59429611111111
0.125,0.6927357181948242,0.5662696455531517,0.2514660726416724,02002,020025364,02,Baja California,Mexicali,Familia González,19,-115.20100583333334,32.44647194444444
0.02561479443608072,0.32186545152370155,0.6097566995477741,-0.26227645358799184,02002,020025421,02,Baja California,Mexicali,Manzana Catorce,12,-114.83894583333333,30.961335833333333
0.01303704202644365,0.3302819939201213,0.5528413384642027,-0.20952230251763776,02002,020025435,02,Baja California,Mexicali,Colonia Montaña y Mar,176,-114.86644166666666,31.023787777777777
0.00543241487865209,0.7959213690762711,0.5974817302044061,0.2038720537505171,02002,020025441,02,Baja California,Mexicali,Familia Cárdenas,12,-114.94613694444443,32.66547555555555
0.125,0.6399631553127083,0.5017795141544373,0.263183641158271,02002,020025450,02,Baja California,Mexicali,Familia González,13,-115.01738972222222,32.32518138888889
0.7083342538156292,0.8300557718829286,0.195786101253576,1.3426039244449817,02004,020040001,02,Baja California,Tijuana,Tijuana,1810645,-117.01891333333332,32.53246083333333
0.12518161880530335,0.5505243658516122,0.4804261993349369,0.19527978532197865,02004,020040719,02,Baja California,Tijuana,Valle Dorado,34,-116.95047111111111,32.41620388888889
0.12584716231035,0.5933801670270963,0.6089082017920306,0.11031912754541562,02004,020041351,02,Baja California,Tijuana,San Antonio,1159,-117.05944972222224,32.4265475
0.37499999999999994,0.4180538029236213,0.4829967528038079,0.3100570501198134,02004,020041428,02,Baja California,Tijuana,El Rosario,20,-116.74384083333334,32.534552777777776
0.16206666342527706,0.5944133443960015,0.43019724267324816,0.3262827651480304,02004,020041767,02,Baja California,Tijuana,Brisas del Mar,544,-117.09251666666668,32.42203416666666
0.24999999999999997,0.5122053471643983,0.45063913172679165,0.3115662154376066,02004,020041787,02,Baja California,Tijuana,Ninguno,12,-116.80402944444444,32.489335833333335
0.12959379995168113,0.4379732212430172,0.5273763105377849,0.040190710656913486,02004,020041801,02,Baja California,Tijuana,Los Girasoles,1271,-116.77745166666666,32.47022527777778
0.1514579555581205,0.5747577559706847,0.4699181877528799,0.25629752377592524,02004,020041919,02,Baja California,Tijuana,San Marino,1369,-117.0900536111111,32.41444444444444
0.1784608075251859,0.5748594518425719,0.5781443659579162,0.17517589340984163,02004,020041956,02,Baja California,Tijuana,Familia González,20,-116.93483222222224,32.44300416666666
0.13804713804713803,0.4773803207572135,0.4292992381410676,0.186128220663284,02004,020042048,02,Baja California,Tijuana,Alvarado,11,-116.77017388888888,32.524719166666664
0.12567265476575162,0.3508489279413239,0.6754364966503966,-0.19891491394332111,02004,020042081,02,Baja California,Tijuana,Los Laureles [Rancho],11,-116.74619444444444,32.46099277777778
0.4063853566461355,0.786151385383726,0.22326051178964684,0.9692762302402147,02005,020050001,02,Baja California,Playas de Rosarito,Playas de Rosarito,100660,-117.05445888888887,32.363684166666665
0.311324277266641,0.5131467660061343,0.4719279460402169,0.35254309723255844,02005,020050076,02,Baja California,Playas de Rosarito,El Morro,30,-117.00915277777776,32.26820305555555
0.4761977886977887,0.501974783451539,0.4090143066537708,0.5691582654955569,02005,020050086,02,Baja California,Playas de Rosarito,Popotla,37,-117.02866972222222,32.27755444444444
0.459510647010647,0.3976382728571515,0.3883186824156402,0.4688302374521582,02005,020050090,02,Baja California,Playas de Rosarito,Puerto Nuevo,111,-116.93445805555557,32.24259638888889
0.37499999999999994,0.4583008442787833,0.3641757552113225,0.46912508906746075,02005,020050176,02,Baja California,Playas de Rosarito,Ninguno,8,-116.93721333333332,32.2574675
0.37499999999999994,0.5117673791747814,0.5354641964077335,0.351303182767048,02005,020050244,02,Baja California,Playas de Rosarito,Ninguno,20,-116.98282,32.261740555555555
0.2776929051619792,0.8343482546320561,0.5708439796577397,0.5411971801362957,02005,020050291,02,Baja California,Playas de Rosarito,El Sauco,18,-117.02348083333334,32.373979444444444
0.2914318041483614,0.5091338827872487,0.4530138940045718,0.34755179293103833,02005,020050304,02,Baja California,Playas de Rosarito,El Morro,62,-117.00111111111111,32.26416666666667
0.5,0.5019181526441792,0.5550835485858351,0.4468346040583441,02005,020050305,02,Baja California,Playas de Rosarito,Puerto Popotla,29,-117.03498416666666,32.28187083333333
0.37499999999999994,0.3165215176771236,0.5237294494662148,0.16779206821090875,02005,020050317,02,Baja California,Playas de Rosarito,Ninguno,18,-116.91039888888888,32.23643388888889
0.5295744108400811,0.30725801855291496,0.16288853627654057,0.6739438931164555,02006,020060001,02,Baja California,San Quintín,San Quintín,4754,-115.93906138888887,30.556485277777774
0.34369172494172495,0.35154956480486416,0.3778798211270456,0.31736146861954356,02006,020060003,02,Baja California,San Quintín,ABC (Los Canelos) [Empaque],22,-115.97343638888889,30.67101694444445
0.4175395302096323,0.4832459224659305,0.3066071791741125,0.5941782735014502,02006,020060022,02,Baja California,San Quintín,Bahía de los Ángeles,781,-113.55998277777778,28.948094722222223
0.1746958654073629,0.4174182806486374,0.29962204200708176,0.29249210404891857,02006,020060040,02,Baja California,San Quintín,Camalú,11272,-116.062415,30.843033055555555
0.12537219050708137,0.484420389025741,0.34407017809120294,0.26572240144161946,02006,020060043,02,Baja California,San Quintín,Campo Daggets,10,-113.54790916666668,28.975748888888887
0.1837391290809076,0.41281539947965035,0.36640263330764333,0.23015189525291457,02006,020060079,02,Baja California,San Quintín,Colonia Benito Juárez,1901,-116.05151027777778,30.850283611111113
0.13068634633454615,0.28631076229160995,0.400777499662578,0.016219608963578158,02006,020060080,02,Baja California,San Quintín,Colonia Concordia,158,-115.92871722222225,30.509253333333337
0.1514620126967699,0.3004564381972515,0.5834679906642642,-0.13154953977024286,02006,020060084,02,Baja California,San Quintín,Colonia Mirasol,46,-115.96139333333332,30.5103475
0.1946651349261549,0.28134001546666965,0.350579305407481,0.12542584498534354,02006,020060085,02,Baja California,San Quintín,Colonia Nueva Era,3675,-115.91645166666667,30.508735
0.1312515278411511,0.29223265646639796,0.48264764256148585,-0.05916345825393676,02006,020060086,02,Baja California,San Quintín,Colonia Popular Carmona,338,-115.93867694444444,30.514649444444444
0.130888208680165,0.26919515460068705,0.6011753944088359,-0.2010920311279839,02006,020060088,02,Baja California,San Quintín,Colonia los Reyes,77,-115.8974927777778,30.485578888888888
0.13452109336464085,0.26528289346781686,0.6286156646514021,-0.22881167781894435,02006,020060089,02,Baja California,San Quintín,Colonia Ávila,18,-115.8929425,30.469929722222226
0.1527013513288927,0.3187744322169041,0.4899317325747311,-0.018455949028934326,02006,020060109,02,Baja California,San Quintín,Ejido Chapala,96,-115.99710416666667,30.513680833333332
0.13605468900772028,0.259020245268427,0.3576065965282266,0.03746833774792069,02006,020060111,02,Baja California,San Quintín,Ejido Francisco Villa (San Simón),1676,-115.88116944444444,30.444621666666663
0.1635661988552095,0.2654886009839607,0.3816084906244907,0.047446309214679516,02006,020060114,02,Baja California,San Quintín,Ejido José María Morelos,466,-115.90389583333334,30.44598166666667
0.2585915263910656,0.5175385818977661,0.4008611881268355,0.37526892016199614,02006,020060115,02,Baja California,San Quintín,Ejido José María Morelos y Pavón,157,-114.03430055555556,28.29411444444445
0.15195402298850574,0.47091206763780585,0.46161761745208973,0.16124847317422186,02006,020060117,02,Baja California,San Quintín,Ejido Mesa de San Jacinto,145,-116.12413805555556,30.88273166666667
0.2868156360486675,0.24647999688937375,0.3933500019729767,0.13994563096506457,02006,020060118,02,Baja California,San Quintín,Ejido Nueva Odisea (El Pabellón),349,-115.85717444444444,30.382278333333335
0.13830500894454384,0.4552281260769884,0.43445186361426014,0.15908127140727213,02006,020060120,02,Baja California,San Quintín,Ejido Nuevo Rosarito,172,-114.01640972222222,28.634303055555556
0.21043884985438316,0.2740693981300901,0.3435869407020873,0.140921307282386,02006,020060121,02,Baja California,San Quintín,Ejido Papalote,4072,-115.9184163888889,30.476355277777778
0.12868562507576914,0.28525941331925775,0.3730281852115503,0.0409168531834766,02006,020060123,02,Baja California,San Quintín,Ejido Raúl Sánchez Díaz,430,-115.92384333333334,30.5119125
0.17577437332567925,0.476266811474309,0.3459109860641549,0.3061301987358334,02006,020060124,02,Baja California,San Quintín,Ejido Rubén Jaramillo,1072,-116.12596944444444,30.924634166666667
0.14312621934833691,0.26200436005243266,0.3682051599325075,0.036925419468262055,02006,020060125,02,Baja California,San Quintín,Ejido San Simón de Arriba,251,-115.89037361111112,30.4487175
0.3509615384615384,0.24487352512882393,0.4167173115841666,0.17911775200619573,02006,020060126,02,Baja California,San Quintín,Ejido Valle Tranquilo,108,-115.8039897222222,30.289303055555557
0.43599991247332986,0.5220195198233276,0.35394249023348195,0.6040769420631755,02006,020060127,02,Baja California,San Quintín,Ejido Villa Jesús María,456,-114.00156166666666,28.2807275
0.12511698594189777,0.6793759155016691,0.6029808894046436,0.20151201203892333,02006,020060134,02,Baja California,San Quintín,El Barril,86,-112.87237,28.301609444444445
0.14745415581937008,0.3093886736033,0.5433917418646049,-0.08654891244193486,02006,020060162,02,Baja California,San Quintín,El Coyote [Rancho],5,-115.97590916666668,30.516629166666668
0.12550206840832576,0.24679468336260285,0.41941374288077704,-0.04711699110984846,02006,020060193,02,Baja California,San Quintín,El Pabellón,8,-115.85431916666666,30.37073611111111
0.16164304364932558,0.2593617588152876,0.44120222160839145,-0.02019741914377826,02006,020060197,02,Baja California,San Quintín,El Parador,19,-115.89871833333332,30.417439444444447
0.243321353184081,0.2862056109441309,0.4607146521646567,0.0688123119635552,02006,020060199,02,Baja California,San Quintín,El Paraíso [Fraccionamiento],845,-115.93095555555556,30.506330555555557
0.1726471397715895,0.28914242258351325,0.5285933000906196,-0.06680373773551684,02006,020060202,02,Baja California,San Quintín,El Pedregal (Bahía el Morro),11,-115.96762333333334,30.466236388888888
0.17948750081333928,0.3027176283879162,0.5141016480366094,-0.03189651883535394,02006,020060207,02,Baja California,San Quintín,El Playón,20,-116.02088472222222,30.432546666666667
0.13169056735636972,0.2677306473983437,0.3296417746721827,0.06977944008253067,02006,020060224,02,Baja California,San Quintín,El Rosario de Abajo,439,-115.73664472222222,30.042765833333338
0.17383925222107086,0.26373234210079965,0.3322511403262225,0.10532045399564804,02006,020060225,02,Baja California,San Quintín,El Rosario de Arriba,1984,-115.72086916666667,30.06396416666667
0.1250723512569159,0.24513920177663964,0.4276532181986076,-0.057441665165052,02006,020060235,02,Baja California,San Quintín,El Socorrito,71,-115.82003583333334,30.321638611111112
0.13361353258613531,0.3767830894782875,0.36810419289813817,0.14229242916628465,02006,020060248,02,Baja California,San Quintín,Emiliano Zapata,9636,-116.00756166666666,30.767940277777775
0.12518161880530335,0.31972143988545754,0.44615259081798886,-0.0012495321272280036,02006,020060249,02,Baja California,San Quintín,Escalante,3,-115.96121305555556,30.559853888888888
0.16756941929309577,0.27770253325680677,0.4768430551117177,-0.03157110256181517,02006,020060250,02,Baja California,San Quintín,Esmeralda,125,-115.9315263888889,30.47270333333333
0.12768117875048154,0.2467916283559702,0.4840362610073232,-0.10956345390087147,02006,020060257,02,Baja California,San Quintín,Familia Aguilera,19,-115.85974472222222,30.389152222222226
0.14720270102233604,0.2988054190586174,0.4651051226444587,-0.019097002563505217,02006,020060260,02,Baja California,San Quintín,Familia Arce,15,-115.95739111111112,30.510989722222224
0.1677396990676379,0.2747996988649595,0.5015342110887582,-0.05899481315616084,02006,020060264,02,Baja California,San Quintín,Familia Becerril,10,-115.92582416666669,30.465313055555555
0.13901003957107536,0.2925547691541899,0.4352169137521305,-0.003652105026865249,02006,020060285,02,Baja California,San Quintín,Familia Delgado Serrano,11,-115.94359555555556,30.51023888888889
0.12518161880530335,0.29391847702520435,0.4844703431811528,-0.06537024735064512,02006,020060287,02,Baja California,San Quintín,Familia Fuentes (Nuevo Mexicali),21,-115.91799611111112,30.543774444444445
0.12501565058748942,0.2668071699021243,0.3515769890491169,0.040245831440496815,02006,020060288,02,Baja California,San Quintín,Familia Fuerte,12,-115.73170277777778,30.044766111111112
0.12507170761116718,0.29110013843895705,0.4640666751761784,-0.04789482912605414,02006,020060289,02,Baja California,San Quintín,Familia Gabino Vázquez,19,-115.90713833333334,30.551598333333335
0.13095384328332363,0.28222201122031004,0.41784963581175366,-0.004673781308119962,02006,020060294,02,Baja California,San Quintín,Familia García Esparza,15,-115.92256055555556,30.50387694444445
0.14491209431410987,0.25706918789131405,0.35279158547342254,0.04918969673200141,02006,020060296,02,Baja California,San Quintín,Familia García de León,15,-115.88830944444445,30.420449722222223
0.12832341362839603,0.24753473435800313,0.44328235743301775,-0.06742420944661859,02006,020060326,02,Baja California,San Quintín,Familia Maciel,37,-115.8631586111111,30.388791666666663
0.1451837394813076,0.3107348235492527,0.5895371795221713,-0.133618616491611,02006,020060329,02,Baja California,San Quintín,Familia Marroquín,9,-115.97696416666666,30.518670277777776
0.16736423620129368,0.2919790840836155,0.41210223912074134,0.047241081164167864,02006,020060332,02,Baja California,San Quintín,Familia Maturín,15,-115.95257277777776,30.496600833333336
0.1263438394180982,0.2873829309423307,0.4038987605106846,0.009828009849744357,02006,020060344,02,Baja California,San Quintín,Familia Padilla (Lázaro Cárdenas),18,-115.91557583333334,30.527338333333333
0.13006867090776458,0.3049799052061097,0.4347496135359443,2.9896257792993985e-4,02006,020060346,02,Baja California,San Quintín,Familia Paniagua,25,-115.9579588888889,30.52528472222222
0.14389073915101927,0.3003276522349341,0.47700243942069864,-0.03278404803474533,02006,020060360,02,Baja California,San Quintín,Familia Raygoza,15,-115.95871138888889,30.51351638888889
0.16025520620655848,0.2995192850053561,0.4392652818759886,0.020509209335925926,02006,020060365,02,Baja California,San Quintín,Familia Rivera,15,-115.96330472222222,30.50501722222222
0.1381603317259742,0.30571356842749364,0.5260862946454922,-0.08221239449202433,02006,020060383,02,Baja California,San Quintín,Familia Solorio Pérez,9,-115.96428305555555,30.520467777777775
0.1341154279696131,0.25060408339502294,0.39726132619744015,-0.012541814832804143,02006,020060388,02,Baja California,San Quintín,Familia Sánchez de León,15,-115.87624083333333,30.390851388888887
0.12518161880530335,0.29658794050055015,0.4055133536021622,0.016256205703691295,02006,020060412,02,Baja California,San Quintín,Familia Áreas (Nuevo Mexicali),25,-115.9236,30.544683055555556
0.13286207059617186,0.29182500784441284,0.4088267308110488,0.01586034762953592,02006,020060413,02,Baja California,San Quintín,Familia Ávalos,9,-115.93930861111112,30.51283972222222
0.17098940338189686,0.28536320944400784,0.4247705289572557,0.03158208386864897,02006,020060421,02,Baja California,San Quintín,Generalito [Rancho],15,-115.94846861111112,30.481261944444444
0.13678679867317237,0.37000690898770583,0.6711402169835765,-0.16434650932269834,02006,020060433,02,Baja California,San Quintín,Isla San Martín,15,-116.1039661111111,30.484696944444444
0.29832784081959823,0.2917173402641993,0.379903126174349,0.21014205490944854,02006,020060440,02,Baja California,San Quintín,Juan María Salvatierra [Granjas],15,-115.95828444444444,30.489207500000003
0.19842743539366892,0.31959547047027925,0.5089013392218249,0.009121566642123269,02006,020060449,02,Baja California,San Quintín,La Chorera,106,-116.03638611111111,30.46047
0.12518161880530335,0.3137944353684118,0.4250865604497653,0.01388949372394982,02006,020060453,02,Baja California,San Quintín,La Coyotera,78,-115.95853722222222,30.54630305555556
0.13029684817996567,0.24897633127962351,0.3665322377013002,0.012740941758288937,02006,020060456,02,Baja California,San Quintín,La Curva (Nueva Odisea),90,-115.86932638888888,30.39104611111111
0.1369408376650725,0.38657796668536326,0.4772638449790689,0.046254959371366866,02006,020060458,02,Baja California,San Quintín,La Escondida,33,-116.02691222222222,30.767533055555553
0.14383837550184522,0.5656039975140472,0.33463542212323405,0.37480695089265836,02006,020060461,02,Baja California,San Quintín,La Espinita [Restaurante],3,-114.01252305555556,28.00679277777778
0.16562214957532256,0.28407741205087045,0.4667563232017775,-0.0170567615755845,02006,020060464,02,Baja California,San Quintín,La Granja [Colonia],8,-115.93940027777778,30.48856277777778
0.12501565058748942,0.26367847568493785,0.3561034046573478,0.032590721615079477,02006,020060475,02,Baja California,San Quintín,La Mesa,28,-115.73521916666668,30.09313583333333
0.12676669807275712,0.24605307238286,0.32351714482481214,0.04930262563080495,02006,020060480,02,Baja California,San Quintín,La Petunia,9,-115.85605805555556,30.387203333333332
0.14267307490003872,0.5666970944631323,0.35482716051845087,0.35454300884472023,02006,020060483,02,Baja California,San Quintín,La Pinta [Hotel],8,-114.0135761111111,28.00085111111111
0.12761175457859297,0.5215388663351594,0.4246436354775353,0.2245069854362171,02006,020060488,02,Baja California,San Quintín,La Puerta [Rancho],9,-114.00011777777776,28.28895055555556
0.13491875322081023,0.30725992138678476,0.5181866775791362,-0.0760080029715412,02006,020060528,02,Baja California,San Quintín,Las Rosas,11,-115.96509527777778,30.523118333333333
0.16758271198354277,0.2789572406282885,0.48220522957865813,-0.03566527696682681,02006,020060542,02,Baja California,San Quintín,Los Balazos [Rancho],8,-115.93461833333332,30.47409861111111
0.13870176085896252,0.2569372482074509,0.35365296539957797,0.04198604366683545,02006,020060569,02,Baja California,San Quintín,Los Pinos,11,-115.88201638888889,30.42881861111111
0.12537219050708137,0.488405565509483,0.34625019911566535,0.267527556900899,02006,020060581,02,Baja California,San Quintín,Los Vientos,15,-113.55708777777778,28.994425555555555
0.14388534933776373,0.25463667663706524,0.42553668457276544,-0.027014658597936447,02006,020060583,02,Baja California,San Quintín,Luis Rodríguez (El Vergel),1066,-115.88728111111112,30.406768888888887
0.22776327630968915,0.2938412594436631,0.31088490308021927,0.21071963267313304,02006,020060585,02,Baja California,San Quintín,Lázaro Cárdenas,18829,-115.93194666666668,30.525980555555556
0.13216974559645023,0.3041201697136447,0.49655710587073737,-0.06026719056064245,02006,020060596,02,Baja California,San Quintín,Mi Lindo Michoacán,28,-115.95844916666668,30.52286944444444
0.17158248994921174,0.29804061990344694,0.3789982910075979,0.09062481884506074,02006,020060605,02,Baja California,San Quintín,Molino Viejo,27,-115.97686694444444,30.484598333333334
0.24999999999999997,0.5666767919676192,0.3257479010514407,0.49092889091617853,02006,020060623,02,Baja California,San Quintín,Ninguno,480,-114.01210611111112,28.00206111111111
0.13137399144777767,0.3022120498973887,0.5581276915058342,-0.12454165016066782,02006,020060629,02,Baja California,San Quintín,Nuevo Mundo,299,-115.95481111111113,30.522264999999997
0.1292189209255966,0.2611076845561801,0.34687220431488436,0.04345440116689231,02006,020060630,02,Baja California,San Quintín,Nuevo Uruapan,1042,-115.70855083333332,30.07468972222222
0.17222832210200664,0.30299368026649753,0.45008341195075424,0.025138590417749962,02006,020060642,02,Baja California,San Quintín,Parcela Número Cinco (Ejido Nuevo Mexicali),42,-115.93056333333334,30.55563194444445
0.1300391604490632,0.3032263028319216,0.4333149764942046,-4.95132132197762e-5,02006,020060645,02,Baja California,San Quintín,Parcela Veinticuatro (Ejido Baja California),30,-115.95497472222222,30.524304722222222
0.12765123645843554,0.28178221262276526,0.4967836918910939,-0.08735024280989306,02006,020060646,02,Baja California,San Quintín,Paseo de San Quintín,1413,-115.91256333333334,30.51490527777778
0.1320691544469986,0.29314002584637766,0.5402828718260888,-0.11507369153271252,02006,020060651,02,Baja California,San Quintín,Pinos de Madrid Etapa 1,107,-115.94086916666669,30.514678611111112
0.13510068046717308,0.2945185151961222,0.6406595532809339,-0.21104035761763862,02006,020060652,02,Baja California,San Quintín,Pinos de Madrid Etapa 2,39,-115.94501277777778,30.513866944444445
0.12574857152659277,0.30773899610802347,0.4580522074489458,-0.024564639814329547,02006,020060660,02,Baja California,San Quintín,Praderas de San Quintín,185,-115.95145527777778,30.53907361111111
0.1298625105966151,0.2911840878860128,0.40489478985338245,0.01615180862924548,02006,020060663,02,Baja California,San Quintín,Pueblo Benito García,1505,-115.93550277777778,30.515348055555556
0.1491441782031974,0.5553466566085941,0.5771974612981933,0.12729337351359815,02006,020060672,02,Baja California,San Quintín,Puerto Viejo,5,-114.11849305555556,28.035699166666667
0.15333333333333332,0.4305068784865419,0.4474708361383022,0.13636937568157304,02006,020060683,02,Baja California,San Quintín,Punta Prieta,135,-114.15397833333334,28.92798972222222
0.12550206840832576,0.24507222107233695,0.411129138646213,-0.040554849165550244,02006,020060715,02,Baja California,San Quintín,Rancho González,14,-115.84545444444444,30.3748525
0.12711509278249872,0.284980360230528,0.38752061090146744,0.024574842111559247,02006,020060743,02,Baja California,San Quintín,Rancho Soto,18,-115.91436472222225,30.52248111111111
0.12550206840832576,0.2453740344153536,0.3540056648403971,0.01687043798328225,02006,020060759,02,Baja California,San Quintín,Rivera,18,-115.84978,30.378460833333335
0.19188195068498112,0.5235124827077401,0.4332519715774662,0.28214246181525504,02006,020060772,02,Baja California,San Quintín,San Carlos,4,-113.993635,28.270906944444445
0.12630588229063427,0.307504889541536,0.4471348655255743,-0.013324093693404038,02006,020060800,02,Baja California,San Quintín,San Miguel [Rancho],38,-115.95418305555556,30.53529055555556
0.1446946912110848,0.2554336127602177,0.4202481694518001,-0.0201198654804976,02006,020060832,02,Baja California,San Quintín,Santa María (Los Pinos),2172,-115.88807055555556,30.41132
0.20844518318831048,0.4336878507229844,0.4579058598823107,0.18422717402898414,02006,020060837,02,Baja California,San Quintín,Santa Rosaliíta,221,-114.23428111111112,28.670738611111112
0.1252894970151964,0.243991877651168,0.39756863441072143,-0.02828725974435703,02006,020060841,02,Baja California,San Quintín,Sara [Mina],11,-115.82571583333332,30.36883166666667
0.1547848464124477,0.2932765423046277,0.42423208546526336,0.023829303251811984,02006,020060845,02,Baja California,San Quintín,Soto Warren [Rancho],20,-115.95085472222225,30.503506666666667
0.12518161880530335,0.2977410863398065,0.3970557879029867,0.0258669172421232,02006,020060858,02,Baja California,San Quintín,Valle Dorado,961,-115.92356222222224,30.548790833333335
0.2140401475108718,0.25540246239110803,0.4495033102649948,0.01993929963698504,02006,020060861,02,Baja California,San Quintín,Venustiano Carranza (Santa María),1503,-115.89235694444446,30.402415555555553
0.14713377090863397,0.36902884486865456,0.2971906102933324,0.21897200548395612,02006,020060863,02,Baja California,San Quintín,Vicente Guerrero,13876,-115.98928583333334,30.73202388888889
0.1297298664823084,0.30993543622096914,0.4489363751094477,-0.0092710724061702,02006,020060865,02,Baja California,San Quintín,Villa San Sebastián,11,-115.96565083333334,30.528660833333333
0.34480334861510803,0.7526985333032672,0.3792800528229706,0.7182218290954047,03001,030010001,03,Baja California Sur,Comondú,Ciudad Constitución,43805,-111.67333944444444,25.034635555555557
0.13579176695703932,0.5424338261617689,0.4094882683168081,0.26873732480200013,03001,030010003,03,Baja California Sur,Comondú,Puerto Adolfo López Mateos,2227,-112.1106136111111,25.19290611111111
0.03281830539524769,0.26191619700899826,0.7945379311989356,-0.49980342879468964,03001,030010027,03,Baja California Sur,Comondú,Puerto Magdalena,55,-112.13987361111111,24.634451666666667
0.054046438232642,0.32098379998708365,0.7369809395859346,-0.36195070136620894,03001,030010045,03,Baja California Sur,Comondú,Cadejé,12,-112.51236194444444,26.377905277777774
0.00538822783464834,0.4328156984569858,0.5765587885857165,-0.1383548622940824,03001,030010049,03,Baja California Sur,Comondú,Las Barrancas,539,-112.19741972222222,26.00216222222222
0.01818347953216374,0.4368918269062783,0.6204280014378445,-0.16535269499940242,03001,030010112,03,Baja California Sur,Comondú,Francisco Villa,38,-112.02861638888888,25.80303388888889
0.00706583993080775,0.6821159989361443,0.5269022220214046,0.16227961684554748,03001,030010133,03,Baja California Sur,Comondú,Ciudad Insurgentes,9133,-111.77746194444444,25.264104444444445
0.15268015238568666,0.5679585144853954,0.5981008677218012,0.12253779914928087,03001,030010162,03,Baja California Sur,Comondú,María Auxiliadora,130,-111.90055444444444,25.427455277777774
0.01134737974153001,0.43455389179020154,0.503646689554737,-0.05774541802300548,03001,030010224,03,Baja California Sur,Comondú,La Poza Grande,470,-112.02668527777776,25.768381666666667
0.02263612082826244,0.34701487828952465,0.8357922664146257,-0.4661412672968386,03001,030010241,03,Baja California Sur,Comondú,Puerto Alcatraz,154,-111.84652361111112,24.50470222222222
0.00361009762727264,0.5525754653646097,0.6588196044076492,-0.10263404141576693,03001,030010244,03,Baja California Sur,Comondú,La Purísima,365,-112.07416055555557,26.18828638888889
0.4680021375702727,0.38475615727834583,0.19166460851855455,0.661093686330064,03001,030010280,03,Baja California Sur,Comondú,Puerto San Carlos,5742,-112.10806194444444,24.78974555555556
0.06284972269229343,0.6965659642953523,0.5634084326322173,0.19600725435542843,03001,030010293,03,Baja California Sur,Comondú,San José de Comondú,73,-111.82369583333332,26.058766666666667
0.01923269710454217,0.5442769891068419,0.5409571672534784,0.022552518957905554,03001,030010335,03,Baja California Sur,Comondú,Santo Domingo,689,-111.91833166666667,25.489236666666667
0.00197112318282786,0.7749259724408244,0.5569874479637617,0.21990964765989063,03001,030010380,03,Baja California Sur,Comondú,Villa Morelos,1189,-111.62982861111112,24.92967888888889
0.00243614708436827,0.6182249977467649,0.5217466758727141,0.09891446895841904,03001,030010387,03,Baja California Sur,Comondú,Villa Ignacio Zaragoza,1304,-111.84292138888888,25.397045277777774
0.00150842440801457,0.7691257663627956,0.6254325362920062,0.14520165447880395,03001,030010390,03,Baja California Sur,Comondú,Ley Federal de Aguas Número Uno,488,-111.6398088888889,25.33737
0.03590204639526782,0.4705965708316277,0.7758873954348761,-0.2693887782079806,03001,030010450,03,Baja California Sur,Comondú,Puerto Cancún,19,-111.74650083333331,24.548403888888892
0.0603412672081363,0.42120994295508185,0.7584976954575006,-0.2769464852942824,03001,030010662,03,Baja California Sur,Comondú,San Buto [Campo Pesquero],55,-112.05215527777776,24.784290555555557
1.5830331485457323e-4,0.42956077902639594,0.9031056385236504,-0.47338655618239994,03001,030010911,03,Baja California Sur,Comondú,La Bocana de San Gregorio,7,-112.2866661111111,26.060760277777774
0.1284722222222222,0.7780812362182633,0.754334237904612,0.15221922053587356,03001,030011964,03,Baja California Sur,Comondú,San Carlos Lote 605-3,10,-111.62379361111113,24.906477777777777
0.00846395749580452,0.3594304549200844,0.649844133447693,-0.28194972103180405,03001,030012086,03,Baja California Sur,Comondú,San Juanico,512,-112.47860694444444,26.25719972222222
0.03020630534187664,0.4325959839868128,0.853041921948096,-0.3902396326194066,03001,030012476,03,Baja California Sur,Comondú,El Chicharrón,82,-112.27340083333333,26.065300555555556
0.37499999999999994,0.4256031517977375,0.7329259482299886,0.06767720356774887,03001,030012821,03,Baja California Sur,Comondú,El Ranchito,149,-112.090545,24.830358055555557
0.460761494586458,0.6219923737657194,0.3119713201341654,0.770782548218012,03002,030020001,03,Baja California Sur,Mulegé,Santa Rosalía,14357,-112.26827472222222,27.33686833333333
0.15530866499510013,0.3495158907923385,0.4481886276674158,0.05663592812002288,03002,030020014,03,Baja California Sur,Mulegé,Bahía Asunción,1453,-114.29755805555556,27.140901944444444
0.30237317731638846,0.3400350870834714,0.3807586021590525,0.2616496622408074,03002,030020015,03,Baja California Sur,Mulegé,Bahía Tortugas,2367,-114.89567916666668,27.69174388888889
0.12822041428468994,0.5692953588186718,0.7138419208717848,-0.016326147768423116,03002,030020041,03,Baja California Sur,Mulegé,El Coyote,8,-111.90971833333334,26.723018611111108
0.21655667936153888,0.5375305824007446,0.7893070297071668,-0.03521976794488335,03002,030020049,03,Baja California Sur,Mulegé,El Dátil,311,-112.91499361111111,26.532867222222222
0.17959717224763197,0.3888818468078451,0.5358660562201333,0.03261296283534376,03002,030020056,03,Baja California Sur,Mulegé,Estero de la Bocana,1013,-113.71192388888888,26.79795138888889
0.4259793332748382,0.3531045648396398,0.4830956086280138,0.2959882894864643,03002,030020066,03,Baja California Sur,Mulegé,Guerrero Negro,13596,-114.05302111111112,27.971833055555553
0.12567049547229342,0.3718538253793141,0.6477352618461144,-0.15021094099450688,03002,030020076,03,Baja California Sur,Mulegé,Isla Natividad,268,-115.17051611111113,27.8539925
0.12613287066068832,0.6027158503928494,0.80505602922994,-0.07620730817640231,03002,030020089,03,Baja California Sur,Mulegé,Los Mártires,424,-113.22342944444443,27.35094027777778
0.2699575306629827,0.5441823129002813,0.43336954484767815,0.38077029871558593,03002,030020097,03,Baja California Sur,Mulegé,Heroica Mulegé,3834,-111.98140055555557,26.891565
0.19442958149774553,0.4240439051308104,0.3819615115298607,0.23651197509869526,03002,030020116,03,Baja California Sur,Mulegé,Punta Abreojos,977,-113.57315666666666,26.717676388888886
0.17715302254405874,0.616628410925614,0.5858763235899688,0.207905109879704,03002,030020140,03,Baja California Sur,Mulegé,San Bruno,739,-112.16193694444443,27.1623825
0.13549672212950825,0.564706466035548,0.5060146796269631,0.1941885085380931,03002,030020149,03,Baja California Sur,Mulegé,San Ignacio,521,-112.8949475,27.281974166666664
0.16300506356871575,0.6183468185327762,0.5890919621233258,0.19225991997816616,03002,030020165,03,Baja California Sur,Mulegé,Ejido San Lucas,732,-112.22268055555556,27.22209333333333
0.1255643865510244,0.56321243983879965,0.6698969124389731,0.01887991395085098,03002,030020244,03,Baja California Sur,Mulegé,Ejido Licenciado Alfredo Vladimir Bonfil,337,-112.70886111111112,27.36388888888889
0.1748431022089926,0.547596578466751,0.6914468727122106,0.030992807963532987,03002,030020456,03,Baja California Sur,Mulegé,Campo Delgadito,77,-113.05683944444444,26.60546138888889
0.1381836433805314,0.4850710985086553,0.728668471344702,-0.1054137294555153,03002,030020515,03,Baja California Sur,Mulegé,La Base,24,-113.13716472222222,26.863326944444445
0.13032044230539724,0.5684744995299108,0.5910231253408009,0.10777181649450718,03002,030020715,03,Baja California Sur,Mulegé,Posada Concepción,58,-111.89834194444444,26.752700555555556
0.12633931757413336,0.5440712556410807,0.8500254178553276,-0.17961484464011346,03002,030020823,03,Baja California Sur,Mulegé,Los Batequis,7,-112.99927861111112,26.613912222222226
0.6415461413051292,0.5009681886711196,0.6747859747212183,0.46772835525503054,03002,030020967,03,Baja California Sur,Mulegé,El Cardón,102,-113.14943805555556,26.79987638888889
0.2580290575872425,0.49430583954048446,0.6606882336330425,0.09164666349468442,03002,030021374,03,Baja California Sur,Mulegé,Ejido Luis Echeverría,433,-113.14765138888887,26.82319888888889
0.25273331227414625,0.5921849977916015,0.7521686258500186,0.09274968421572916,03002,030021515,03,Baja California Sur,Mulegé,El Dátil,10,-113.0975322222222,27.673203055555557
0.17011437568746374,0.43864129058767987,0.6488007513808453,-0.040045085105701594,03002,030021554,03,Baja California Sur,Mulegé,La Baliza,7,-113.54786333333332,26.728118888888886
0.13669776241199677,0.3373667111508392,0.506971197198639,-0.03290672363580305,03002,030021777,03,Baja California Sur,Mulegé,Quinta Gloria,20,-114.8451297222222,27.726344166666664
0.6273437126293041,0.7149194728833005,0.0840747930376094,1.2581883924749953,03003,030030001,03,Baja California Sur,La Paz,La Paz,250141,-110.30659,24.148745
