sens_tot_score,exp_tot_score,adap_tot_score,vul_score,CVE_MUN,CVE_LOC,CVE_ENT,NOM_ENT,NOM_MUN,NOM_LOC,POBTOT,deci_lon,deci_lat
0.00110326799709484,0.3322755684328076,0.6177055332738446,-0.2843266968439422,04008,040080002,04,Campeche,Tenabo,Emiliano Zapata,469,-90.15415055555556,19.824409166666666
0.00254448197491178,0.4905505380277705,0.5673773549369018,-0.07428233493421948,18008,180080005,18,Nayarit,Xalisco,El Carrizal,367,-104.93194444444444,21.378333333333337
0.01202547823893987,0.503583502760762,0.6956516361262626,-0.1800426551265607,18008,180080028,18,Nayarit,Xalisco,San Antonio,163,-105.06540805555557,21.37048861111111
0.19976757973812628,0.5826080743975779,0.5590993715888958,0.22327628254680842,23003,230030001,23,Quintana Roo,Isla Mujeres,Isla Mujeres,13174,-86.74609166666667,21.256569166666665
0.16111111111111112,0.5697071007517063,0.6389468387902402,0.0918713730725772,23003,230030435,23,Quintana Roo,Isla Mujeres,El Dorado,5,-86.79787777777777,21.329485555555554
0.2245043665699477,0.5502084148651212,0.39049054092723073,0.3842222405078382,23005,230050001,23,Quintana Roo,Benito Juárez,Cancún,888797,-86.8248111111111,21.16141611111111
0.05992537851377353,0.424331156971135,0.45843957896517645,0.025816956519732093,23009,230090001,23,Quintana Roo,Tulum,Tulum,33374,-87.46320472222223,20.210776666666668
0.01446670907548769,0.46872027537357314,0.5290482841639734,-0.045861299714912596,23009,230090106,23,Quintana Roo,Tulum,Javier Rojo Gómez (Punta Allen),393,-87.47648,19.800345555555555
0.02931155378315033,0.5997729089553704,0.43135662008337977,0.19772784265514093,23011,230110001,23,Quintana Roo,Puerto Morelos,Puerto Morelos,19205,-86.87617722222221,20.8484525
0.06266279111282859,0.5264174152515059,0.5292644000617837,0.05981580630255079,23011,230110193,23,Quintana Roo,Puerto Morelos,Leona Vicario,7028,-87.20452666666667,20.98757944444445
0.13398949817651784,0.4818808078603049,0.4678312884084492,0.14803901762837351,31004,310040001,31,Yucatán,Baca,Baca,4997,-89.39938222222223,21.109548333333336
0.22012135883250364,0.5097233562793472,0.47066404168501574,0.25918067342683504,31011,310110001,31,Yucatán,Celestún,Celestún,8366,-90.39946361111112,20.86009166666667
5.121468723003366e-4,0.4988162519911444,0.7235798670386122,-0.2242514681751675,31011,310110059,31,Yucatán,Celestún,Flamingos,14,-90.39065,20.88262277777778
1.4371228318244323e-4,0.5054180956225968,0.4794573723500404,0.026104435555738825,31026,310260001,31,Yucatán,Dzemul,Dzemul,3467,-89.30881388888889,21.211503055555553
0.00463105868055321,0.5138669177010798,0.5784116815947428,-0.05991370521310968,31026,310260006,31,Yucatán,Dzemul,San Eduardo,57,-89.276285,21.23311805555555
0.00318512770428814,0.5539059287774182,0.5048733653272094,0.052217691154496926,31027,310270001,31,Yucatán,Dzidzantún,Dzidzantún,7530,-89.042975,21.246678333333335
0.16607267695269187,0.5719180329669328,0.6252191628112902,0.11277154710833448,31027,310270004,31,Yucatán,Dzidzantún,Santa Clara,38,-89.01375416666667,21.373820277777774
0.1315542239197558,0.5827320510407009,0.45113229145431927,0.26315398350613745,31029,310290001,31,Yucatán,Dzilam González,Dzilam González,6169,-88.92974055555555,21.280125
0.2,0.5709547022121879,0.5803699359756471,0.19058476623654075,31033,310330006,31,Yucatán,Halachó,Santa María Acú,1512,-90.16353722222225,20.54778166666667
5.868280043306052e-4,0.46153986366551647,0.4993407601204352,-0.03721406845058811,31038,310380001,31,Yucatán,Hunucmá,Hunucmá,28412,-89.87705166666666,21.016154166666663
0.5272733522019818,0.4013092455451414,0.4508886896911859,0.47769390805593726,31038,310380004,31,Yucatán,Hunucmá,Sisal,2078,-90.03254027777778,21.1648975
1.3173901681203567e-4,0.47524012020242046,0.4735177551942358,0.0018541040249966945,31039,310390001,31,Yucatán,Ixil,Ixil,4115,-89.48121111111111,21.153000277777775
5.821022168337347e-4,0.5620349093706448,0.6094935275329083,-0.04687651594542974,31048,310480012,31,Yucatán,Maxcanú,Paraíso,723,-90.117705,20.6754
3.7620763498812186e-4,0.4972916180164148,0.42857000247353266,0.06909782317787028,31052,310520001,31,Yucatán,Motul,Motul de Carrillo Puerto,26081,-89.28392472222222,21.095550555555555
0.01579032740618992,0.5065703824667114,0.7113689091771688,-0.1890081993042675,31052,310520021,31,Yucatán,Motul,Komchén Martínez,112,-89.26410083333333,21.152445
0.18695772134271663,0.5619519715417728,0.40200035241343873,0.34690934047105065,31061,310610001,31,Yucatán,Río Lagartos,Río Lagartos,2493,-88.1579775,21.597750555555553
0.05446370109681069,0.5145130828606602,0.6206049221140232,-0.05162813815655232,31061,310610002,31,Yucatán,Río Lagartos,Las Coloradas,1399,-87.99060722222222,21.608724722222224
0.11424552666826358,0.5879441450552824,0.41705036950463176,0.2851393022189142,31065,310650001,31,Yucatán,San Felipe,San Felipe,2069,-88.23206333333333,21.567598888888888
0.17044445395747548,0.5193911991494776,0.4685276305128072,0.22130802259414595,31068,310680001,31,Yucatán,Sinanché,Sinanché,2586,-89.18578333333333,21.225595
0.1396128776842544,0.5352203711294532,0.4684063044153554,0.20642694439835224,31068,310680003,31,Yucatán,Sinanché,San Crisanto,605,-89.17180888888889,21.35328138888889
0.05585042733543474,0.511522743963974,0.47708087226611706,0.09029229903329172,31082,310820001,31,Yucatán,Telchac Pueblo,Telchac,3496,-89.27126722222222,21.20334888888889
0.32700762601306416,0.5125228840718213,0.38555840036186206,0.4539721097230235,31083,310830001,31,Yucatán,Telchac Puerto,Telchac Puerto,1913,-89.264225,21.343003888888887
0.4760291978588309,0.46744517900657606,0.13607379809390535,0.8074005787715017,02001,020010001,02,Baja California,Ensenada,Ensenada,330652,-116.59513388888888,31.80894388888889
0.0837054011257689,0.46030889379433265,0.576101456330932,-0.032087161410830456,02001,020010095,02,Baja California,Ensenada,Ejido Eréndira,1711,-116.371395,31.27332361111111
0.05375871080139373,0.4329090282010509,0.6440013124025686,-0.157333573400124,02001,020010118,02,Baja California,Ensenada,Licenciado Gustavo Díaz Ordaz,1640,-116.15444388888888,30.971335555555555
0.03714373193231125,0.4540341974946342,0.7203356446236499,-0.22915771519670441,02001,020010124,02,Baja California,Ensenada,Isla de Cedros,1233,-115.19277777777778,28.095555555555553
0.01145702578243756,0.5644995157511361,0.6387295760632165,-0.06277303452964278,02001,020010127,02,Baja California,Ensenada,Jatay,5,-116.8549622222222,32.02642611111111
0.0391903266558478,0.4664332372463984,0.5484391740174613,-0.042815610115215175,02001,020010139,02,Baja California,Ensenada,Rodolfo Sánchez Taboada (Maneadero),27969,-116.57149055555556,31.72355083333333
0.01747569188773518,0.4670517809782296,0.6910909427498855,-0.20656346988392071,02001,020010149,02,Baja California,Ensenada,El Milagro,33,-116.5432511111111,32.08848444444445
0.05278763416649391,0.4791942910679863,0.527589841829387,0.004392083405093228,02001,020010155,02,Baja California,Ensenada,Díaz [Rancho],11,-116.61212777777776,31.711625
0.0773025147066634,0.4878034676407368,0.5708470643308254,-0.005741081983425267,02001,020010184,02,Baja California,Ensenada,Coronel Esteban Cantú,545,-116.64096888888888,31.7052275
0.00364600339627264,0.44885562987391103,0.566669817389255,-0.11416818411907137,02001,020010186,02,Baja California,Ensenada,Ejido Punta Colnett (Punta Colonet),3095,-116.21029916666669,31.070360555555556
8.583854396608887e-4,0.45510860264881514,0.5753147336830983,-0.11934774559462225,02001,020010242,02,Baja California,Ensenada,Santo Tomás,395,-116.40687416666668,31.551543055555555
0.00266058080690839,0.42799506353929995,0.5443828678670662,-0.1137272235208579,02001,020010243,02,Baja California,Ensenada,San Vicente,5068,-116.25033527777778,31.326623333333337
0.2680576454001454,0.48806206085306664,0.4363821193792865,0.3197375868739255,02001,020010247,02,Baja California,Ensenada,El Sauzal de Rodríguez,11371,-116.69870305555555,31.896220555555555
0.01747569188773518,0.5016664123152796,0.6307788648992323,-0.11163676069621742,02001,020010254,02,Baja California,Ensenada,Cuatro Cuatros,10,-116.73463638888887,31.947340555555556
0.06232660594999403,0.49814880423517727,0.59422464969573,-0.03374923951055864,02001,020010329,02,Baja California,Ensenada,La Bufadora,100,-116.71386472222224,31.722886666666664
5.170490745758847e-4,0.482411029450849,0.5660704468203576,-0.08314236829493266,02001,020010385,02,Baja California,Ensenada,Los Cipreses,14,-116.6647038888889,31.951798888888888
1.8292710844097096e-4,0.4768076070807808,0.7135005241475522,-0.2365099899583304,02001,020010544,02,Baja California,Ensenada,Rancho Percebú,15,-114.70205583333332,30.817072222222222
1.0548742821202912e-4,0.47312684068291966,0.7017703528220667,-0.22853802471093498,02001,020010645,02,Baja California,Ensenada,Punta Cabras,23,-116.43985166666668,31.327240555555555
0.04524814696280368,0.4849157188992867,0.6059256581084621,-0.0757617922463717,02001,020010677,02,Baja California,Ensenada,El Ramajal,67,-116.6248311111111,31.68560111111111
0.05981260207837916,0.4869161877438564,0.5773708688675376,-0.03064207904530203,02001,020010678,02,Baja California,Ensenada,El Aguaje,15,-116.63718333333334,31.702062777777776
7.874662602748774e-4,0.46270893709360167,0.6529678167400015,-0.18947141338612494,02001,020010684,02,Baja California,Ensenada,Campo la Roca,14,-114.70704111111112,30.710641111111112
0.01632274514989035,0.451089119584432,0.5565892510452903,-0.089177386310968,02001,020010732,02,Baja California,Ensenada,El Sauco,14,-116.38873055555555,31.543278333333333
0.04441131684519648,0.46736815387505987,0.6117460725644575,-0.09996660184420114,02001,020010736,02,Baja California,Ensenada,Puerto San Isidro,109,-116.40258611111112,31.28922777777778
0.00414194088640548,0.44062117896147346,0.7396141933004114,-0.29485107345253253,02001,020010769,02,Baja California,Ensenada,San Marcos,13,-116.44364055555556,32.14187027777778
7.30278383777411e-4,0.463597268332381,0.6855740806944745,-0.221246533978316,02001,020010848,02,Baja California,Ensenada,Campo Zaguaro,55,-114.70759694444445,30.71829861111111
0.01495436120916471,0.5453644076822374,0.6298996284093995,-0.06958085951799742,02001,020010861,02,Baja California,Ensenada,El Salto,19,-116.77984277777776,32.039498888888886
0.00204383236930991,0.4113827680021198,0.7020056631772275,-0.28857906280579776,02001,020010892,02,Baja California,Ensenada,Puertecitos,24,-114.64032555555556,30.350953611111112
0.0363784020616194,0.4764123058176106,0.5881050232038895,-0.07531431532465949,02001,020010909,02,Baja California,Ensenada,Rancho Zamora (Parcela Cuatrocientos Veintiséis),45,-116.5961775,31.696176666666663
0.20555555555555555,0.45388856635495006,0.6192290670384937,0.040215054872011935,02001,020010942,02,Baja California,Ensenada,Uruapan,694,-116.43984416666667,31.623483333333333
0.02078311065698611,0.46090218850579107,0.5117286765967232,-0.030043377433945972,02001,020010958,02,Baja California,Ensenada,La Huerta (Ejido Nacionalista),9,-116.56094194444444,31.75730972222222
0.10292410179274586,0.43623380702315107,0.6546623793867649,-0.11550447057086799,02001,020011025,02,Baja California,Ensenada,Poblado Héroes de Chapultepec,2360,-116.16487583333334,30.981760277777777
6.045391518339064e-4,0.4592450840292363,0.679198130086904,-0.2193485069058338,02001,020011048,02,Baja California,Ensenada,Playa México [Campo],7,-114.69813555555557,30.651885555555555
1.926464573976844e-4,0.4025392898042357,0.7117541645483327,-0.30902222828669934,02001,020011080,02,Baja California,Ensenada,Papá Fernández [Campo],12,-114.4045525,29.826989166666667
0.06308115727534505,0.4916113710372603,0.5526522697802637,0.0020402585323416877,02001,020011115,02,Baja California,Ensenada,Aguacaliente,24,-116.660695,31.71794722222222
0.00807813156837869,0.48487108826998887,0.8883511933327595,-0.39540197349439193,02001,020011121,02,Baja California,Ensenada,Agua Dulce,13,-116.6072372222222,31.55295472222222
0.04168337582021356,0.47098212102550713,0.6143087519265558,-0.10164325508083505,02001,020011170,02,Baja California,Ensenada,Arce (Ejido Nacionalista),64,-116.59312416666666,31.744705555555555
4.7730860731245246e-4,0.46895227804626666,0.702498288212483,-0.23306870155890386,02001,020011183,02,Baja California,Ensenada,Bahía Santa María [Campo],7,-114.69864333333334,30.7415225
0.01747569188773518,0.5094976295554372,0.6243039252682174,-0.09733060382504499,02001,020011201,02,Baja California,Ensenada,Rancho Bonito,38,-116.7465727777778,31.98007972222222
2.2031163719583937e-5,0.4187877469261724,0.8278119366864563,-0.4090021585965643,02001,020011238,02,Baja California,Ensenada,Serena [Campo],13,-114.644685,30.376628055555557
0.05202321051714548,0.4763687196736639,0.5729891276372202,-0.044597197446410886,02001,020011251,02,Baja California,Ensenada,Sánchez (Ejido Nacionalista),53,-116.60588055555554,31.723858055555553
2.2031163719583937e-5,0.4366068288333585,0.7781381433456063,-0.3415092833485282,02001,020011280,02,Baja California,Ensenada,Cimarrón [Campo],9,-114.6332225,30.418799166666663
0.05330706813989623,0.4753282954854187,0.604933617929614,-0.07629825430429904,02001,020011297,02,Baja California,Ensenada,Colonia Costa Azul,157,-116.60742111111112,31.743481666666668
1.0348056990987724e-4,0.46209715697138415,0.8204476411650025,-0.3582470036237084,02001,020011303,02,Baja California,Ensenada,Cristina [Campo],5,-114.6501675,30.52944638888889
2.3731392905070096e-4,0.48129506169473296,0.6161871744836159,-0.13465479885983228,02001,020011309,02,Baja California,Ensenada,Cuatro Milpas,337,-116.67264583333332,31.89570361111111
7.874662602748774e-4,0.46224213714071094,0.6106340465405483,-0.1476044431395625,02001,020011334,02,Baja California,Ensenada,Delicias [Campo],4,-114.70511944444443,30.704341944444444
7.874662602748774e-4,0.4608896981717358,0.6529994839613223,-0.19132231952931167,02001,020011341,02,Baja California,Ensenada,Diamante [Campo],4,-114.69498916666667,30.674634444444447
5.70177039656558e-4,0.4790950173918437,0.7160705297552387,-0.23640533532373842,02001,020011345,02,Baja California,Ensenada,Gutiérrez Polanco (Rancho Panchos),5,-114.7092525,30.865753611111113
7.874662602748774e-4,0.46138144579370055,0.7036975237487625,-0.24152861169478707,02001,020011373,02,Baja California,Ensenada,La Esmeralda [Campo],9,-114.69662138888889,30.68467138888889
0.0028080808080808,0.4252020645403288,0.8921986509929299,-0.46418850564452036,02001,020011436,02,Baja California,Ensenada,Ejido Jamau,8,-115.70651694444445,31.493870833333336
0.06308115727534505,0.49316345330015576,0.5760871175298486,-0.01984250695434786,02001,020011444,02,Baja California,Ensenada,La Jolla [Campo Turístico],137,-116.66852138888888,31.714685
1.0548742821202912e-4,0.47171064877928026,0.7307161361944415,-0.25889999998694924,02001,020011489,02,Baja California,Ensenada,Las Minas,6,-116.43242222222224,31.321889444444444
7.7681623397371e-5,0.4166798744740033,0.7310201394036261,-0.3142625833062254,02001,020011603,02,Baja California,Ensenada,Playa Curvina (Campo Speedys),11,-114.64108416666669,30.368536944444443
7.874662602748774e-4,0.4610866169420657,0.6712278081529188,-0.20935372495057825,02001,020011616,02,Baja California,Ensenada,Playa Punta Loma [Campo],6,-114.69680861111112,30.68150888888889
0.00807813156837869,0.4988518608470042,0.8831852234396728,-0.3762552310242898,02001,020011661,02,Baja California,Ensenada,El Puerto de Santo Tomás,15,-116.68092861111111,31.553051944444444
4.5854242695900774e-4,0.4597460476312152,0.7117815892874111,-0.2515769992292369,02001,020011663,02,Baja California,Ensenada,Los Pulpos [Campo],6,-114.66977583333332,30.5810925
0.05097299086564429,0.47550997634313313,0.614958536305801,-0.08847556909702359,02001,020011687,02,Baja California,Ensenada,Rancho de Dios,9,-116.6040897222222,31.72781833333333
0.01747569188773518,0.5250275281503325,0.6843740365428967,-0.14187081650482902,02001,020011740,02,Baja California,Ensenada,Salsipuedes [Inmobiliaria],5,-116.7957822222222,31.984862222222223
0.01260899540556254,0.4940156064021017,0.5123125957754352,-0.005687993967770977,02001,020011812,02,Baja California,Ensenada,San Miguel (Cíbolas de Mar),205,-116.72439083333332,31.906791944444443
0.05794562847584949,0.46281235697720496,0.6255253627126508,-0.1047673772595964,02001,020011814,02,Baja California,Ensenada,San Miguel,10,-116.49676138888888,31.634645
7.874662602748774e-4,0.46196505461098775,0.6419479091707989,-0.1791953882995363,02001,020011825,02,Baja California,Ensenada,San Pedro [Campo],4,-114.7045863888889,30.701106944444444
0.01631711086425532,0.5244020360818835,0.7191182034300733,-0.1783990564839344,02001,020011870,02,Baja California,Ensenada,Ejido Santa Rosa,149,-116.74499944444445,32.025821666666666
7.874662602748774e-4,0.4619360833676386,0.6612088885004136,-0.19848533887250014,02001,020011957,02,Baja California,Ensenada,El Vergel [Campo],19,-114.70058666666668,30.695183055555557
0.06308115727534505,0.49322701309545175,0.5598543163753698,-0.0035461460045729254,02001,020011962,02,Baja California,Ensenada,Villarino (Campo Villarino) [Campamento Turístico],44,-116.66945416666668,31.717746388888887
0.01898126555671806,0.4614018280999781,0.6369950265004977,-0.15661193284380148,02001,020012005,02,Baja California,Ensenada,Alborada [Fraccionamiento],16,-116.56932888888888,31.791755
0.01460774905400947,0.4589137541061541,0.6846088831411341,-0.21108737998097055,02001,020012007,02,Baja California,Ensenada,Lomas del Escorpión,36,-116.56071694444444,31.792639444444447
0.01812595921014422,0.4608937863430059,0.6687713322103463,-0.18975158665719627,02001,020012013,02,Baja California,Ensenada,Gustavo Salgado,19,-116.56714,31.790134722222223
1.8079769560645553e-4,0.4444281248169971,0.6879281470000895,-0.24331922448748594,02001,020012134,02,Baja California,Ensenada,Los Alamitos,10,-116.50836194444445,31.77123472222222
0.13422619047619047,0.5956985156110328,0.573696294632098,0.15622841145512523,02001,020012157,02,Baja California,Ensenada,Puerto Salina,47,-116.87838694444444,32.060090833333334
0.00400590411303761,0.5786477893053653,0.6331868864181622,-0.050533192999759335,02001,020012160,02,Baja California,Ensenada,Úrsulo Galván,99,-116.87556694444444,32.03625916666667
0.06308115727534505,0.4901171394109871,0.5763109915279007,-0.023112694841568526,02001,020012221,02,Baja California,Ensenada,Playa Dorada [Campo],74,-116.65479222222224,31.722294166666664
0.05452791566881472,0.4855051883338996,0.5873314268035188,-0.04729832280080448,02001,020012223,02,Baja California,Ensenada,Punta Estero,32,-116.62989666666664,31.695082777777777
0.06866701586120363,0.49355316569348856,0.6347450425511951,-0.0725248609965029,02001,020012224,02,Baja California,Ensenada,Rincón Punta Banda [Rincón de Ballenas],4,-116.67150944444444,31.7183225
3.991936472934815e-4,0.4411550125341636,0.7855024758823175,-0.3439482697008604,02001,020012230,02,Baja California,Ensenada,Puente los Novatos (La Presa),6,-116.32131638888887,31.305706666666666
0.01826216960405762,0.46008403286989297,0.6948600768722499,-0.21651387439829933,02001,020012317,02,Baja California,Ensenada,Todo Santos,88,-116.56190277777776,31.777033333333332
2.959290341326859e-4,0.5042479046490591,0.5767328283459632,-0.0721889946627714,02001,020012435,02,Baja California,Ensenada,Rancho González,16,-116.65285666666668,32.05623472222222
0.10081818181818182,0.4806591935092047,0.3896242450195704,0.19185313030781614,02001,020012465,02,Baja California,Ensenada,El Rosario,6,-116.58051305555556,32.07582027777778
0.01747569188773518,0.501393909969863,0.6158896735600345,-0.09702007170243632,02001,020012487,02,Baja California,Ensenada,Ejido Ley Federal de Reforma Agraria (El Tigre),87,-116.73271,31.94878138888889
0.01747569188773518,0.5040338060952495,0.6090664210635267,-0.08755692308054208,02001,020012488,02,Baja California,Ensenada,El Milagro,10,-116.73543027777778,31.963649722222225
0.01524337014504615,0.49710313406692747,0.5654980419071667,-0.053151537695193096,02001,020012502,02,Baja California,Ensenada,Villas de San Miguel,68,-116.73816666666669,31.906741666666665
0.00705743083029252,0.5661367026414198,0.5995279896153723,-0.026333856143660017,02001,020012691,02,Baja California,Ensenada,Baja Mar San Diego,134,-116.87128194444443,32.0197125
0.00339546896641239,0.5806821641585967,0.6816403756812831,-0.09756274255627395,02001,020012693,02,Baja California,Ensenada,Ejido Ensenada,16,-116.86614888888889,32.04494722222222
1.0082737606341495e-5,0.4491755672804378,0.5598627182577073,-0.11067706823966317,02001,020012729,02,Baja California,Ensenada,El Conquistador,16,-116.55336305555556,31.87010888888889
0.01747569188773518,0.5030997934344246,0.5899484241319173,-0.06937293880975748,02001,020012776,02,Baja California,Ensenada,Playa Saldamando,3,-116.75449027777778,31.928319444444444
0.00153319660030777,0.4615640974481831,0.613967276277822,-0.15086998222933112,02001,020012870,02,Baja California,Ensenada,El Veladero (Ejido Nacionalista),612,-116.54480083333333,31.70734472222222
0.00143531491777161,0.45279129149542513,0.563233618406618,-0.10900701199342128,02001,020012978,02,Baja California,Ensenada,Rancho Aguacaliente (Baja Country Club),132,-116.53459416666666,31.764161666666663
0.01046300304633638,0.44433678959965567,0.6057871925505773,-0.15098739990458526,02001,020013122,02,Baja California,Ensenada,Ejido 27 de Enero,495,-116.20153861111112,31.087761944444445
0.00262511398622632,0.4822386763630048,0.617013997399618,-0.13215020705038688,02001,020013151,02,Baja California,Ensenada,El Escondido,32,-116.67071361111113,31.936771666666665
0.00277884385376808,0.48224782983322184,0.6710100199378994,-0.1859833462509095,02001,020013152,02,Baja California,Ensenada,Estación Victoria,21,-116.67137861111112,31.935455555555556
0.0657967439175583,0.4982610451673641,0.5926556784562966,-0.028597889371374308,02001,020013170,02,Baja California,Ensenada,Campo Número Siete,17,-116.71178305555556,31.73717055555556
0.06308115727534505,0.49708359176984607,0.5715095755723882,-0.01134482652719715,02001,020013171,02,Baja California,Ensenada,Rancho Packard,61,-116.69622222222225,31.72983222222222
0.06308115727534505,0.49547965717662,0.6429634652234776,-0.08440265077151254,02001,020013173,02,Baja California,Ensenada,Lomas del Mar,36,-116.68423777777778,31.72527111111111
0.06308115727534505,0.4966136774131434,0.6303937101316145,-0.07069887544312603,02001,020013174,02,Baja California,Ensenada,Puerto Escondido,54,-116.69419055555556,31.72109472222222
0.06287319603303251,0.4837183193327307,0.5837182437212912,-0.037126728355527994,02001,020013283,02,Baja California,Ensenada,Baja Beach and Tennis Club,17,-116.63685861111112,31.742275
0.0649711825530404,0.4986419393864671,0.6413769270954776,-0.07776380515597003,02001,020013329,02,Baja California,Ensenada,Campo Número Cinco,8,-116.722295,31.729470555555555
4.5854242695900774e-4,0.4580672898137604,0.7587190782975813,-0.30019324605686193,02001,020013340,02,Baja California,Ensenada,San José [Campo],6,-114.68431277777778,30.598395555555555
0.00249089885218942,0.4561538541935255,0.572723707787278,-0.1140789547415631,02001,020013353,02,Baja California,Ensenada,Santa Clara,16,-116.54447194444444,31.757384166666668
0.0165715854729395,0.4597125717988867,0.6483484084229204,-0.1720642511510942,02001,020013355,02,Baja California,Ensenada,Escorpión [Centro Recreativo],618,-116.56195111111111,31.784047500000003
0.07053797754843381,0.48012273817997575,0.5749107949782614,-0.024250079249851786,02001,020013368,02,Baja California,Ensenada,Artículo Ciento Quince,1578,-116.575,32.081388888888895
7.768516723740586e-5,0.4565781354529873,0.5862375295167334,-0.12958170889650866,02001,020013381,02,Baja California,Ensenada,Ejido el Ajusco,469,-116.42178666666668,31.58338361111111
0.03151085563745825,0.5022953110173606,0.6346967135938559,-0.1008905469390371,02001,020013460,02,Baja California,Ensenada,Familia González,15,-116.64944444444446,32.05444444444444
4.993341945005105e-4,0.4578037697058782,0.6910596826057805,-0.23275657870540184,02001,020013555,02,Baja California,Ensenada,San Antonio,11,-114.69875416666667,30.624356388888888
0.02184782337240047,0.47570984909593805,0.6561383876768886,-0.15858071520855005,02001,020013606,02,Baja California,Ensenada,Brisas del Mar,13,-116.59229138888888,31.692404166666662
0.00807813156837869,0.4964815047623578,0.8323523399149639,-0.3277927035842274,02001,020013627,02,Baja California,Ensenada,Punta Clara,19,-116.65384361111111,31.530263055555555
3.991936472934815e-4,0.4629941386564904,0.6364869424422206,-0.17309361013843672,02001,020013639,02,Baja California,Ensenada,Malibú Beach (Parcela 31),19,-116.3575125,31.238341666666667
9.44434209793684e-4,0.4912443636006229,0.5939380653629948,-0.10174926755257818,02001,020013658,02,Baja California,Ensenada,Tres Cruces [Rancho],23,-116.6768563888889,31.987372222222223
0.02106495275644702,0.46096334448570175,0.5610023160146547,-0.07897401877250587,02001,020013677,02,Baja California,Ensenada,Parcela Número Treinta y Cinco (Ejido Nacionalista),40,-116.56128305555556,31.757763611111113
0.04536389417122703,0.47189037309917486,0.6023696619572595,-0.08511539468685758,02001,020013682,02,Baja California,Ensenada,Parcela Número Uno (Ejido Nacionalista),16,-116.60217527777776,31.771773055555556
0.04309995394866624,0.47111136321875896,0.5885303712133639,-0.07431905404593875,02001,020013684,02,Baja California,Ensenada,Parcela Número Tres (Santa María),17,-116.59772055555555,31.767486388888887
0.04064000157445498,0.46981613611817424,0.5458851919861524,-0.035429054293523166,02001,020013685,02,Baja California,Ensenada,Carrillo (Parcela Cinco) [Rancho],10,-116.59330416666666,31.768521944444444
0.03889089599702882,0.4686983978546174,0.49640912330037373,0.011180170551272461,02001,020013687,02,Baja California,Ensenada,Parcela Tres (Ejido Nacionalista),19,-116.5890461111111,31.76767111111111
0.03810828162960543,0.4682155513484846,0.6027902898676027,-0.09646645688951272,02001,020013688,02,Baja California,Ensenada,Parcela Número Seis (Ejido Nacionalista),8,-116.58745333333331,31.76815694444444
0.0760768002843969,0.46706667339123326,0.5307118362354605,0.01243163744016973,02001,020013689,02,Baja California,Ensenada,Parcela Siete (Ejido Nacionalista),10,-116.58401027777778,31.770471666666666
0.0760768002843969,0.46881905045869526,0.4858941306915416,0.05900172005155052,02001,020013690,02,Baja California,Ensenada,Parcela Siete (Ejido Nacionalista),8,-116.58862111111112,31.763029166666666
0.0386752586723909,0.4682886255950342,0.5920064525240603,-0.08504256825663514,02001,020013691,02,Baja California,Ensenada,Parcela Ocho (Ejido Nacionalista),47,-116.58686083333332,31.763425555555557
0.03586857457227867,0.4662210969700564,0.5755692282276718,-0.07347955668533668,02001,020013692,02,Baja California,Ensenada,Parcela Nueve (Ejido Nacionalista),95,-116.58010888888889,31.764283055555556
0.04393854098784854,0.4719150831184735,0.6726741296648945,-0.1568205055585724,02001,020013696,02,Baja California,Ensenada,Parcela Número Trece (Ejido Nacionalista),25,-116.5972222222222,31.75027777777778
0.03501400890514968,0.4656365420068838,0.692193793958035,-0.19154324304600157,02001,020013699,02,Baja California,Ensenada,Parcela Quince (Ejido Nacionalista),15,-116.57790944444444,31.76167111111111
0.02897440134428165,0.4634897541840924,0.5533883165697655,-0.06092416104139148,02001,020013700,02,Baja California,Ensenada,Parcela Dieciséis (Ejido Nacionalista),13,-116.57120916666666,31.76445861111111
0.03950736830622021,0.4686794721763385,0.5683193950212427,-0.06013255453868405,02001,020013706,02,Baja California,Ensenada,Parcela Número Cuarenta y Tres (Ejido Nacionalista),15,-116.58706555555555,31.75478111111111
0.03764725501765051,0.4670234163678698,0.535118804035012,-0.030448132649491644,02001,020013707,02,Baja California,Ensenada,Parcela Ciento Veinte (Ejido Nacionalista),13,-116.58143722222222,31.754939722222225
0.03590201158175488,0.46595709574067024,0.5376731589311373,-0.035814051608712205,02001,020013708,02,Baja California,Ensenada,Colonia Santa Isabel (Cañón San Carlos),332,-116.578065,31.75632138888889
0.02835675803332052,0.46324519993635993,0.5325407491098567,-0.04093879114017629,02001,020013711,02,Baja California,Ensenada,Parcela Treinta y Dos (Ejido Nacionalista),53,-116.56896583333332,31.756732777777778
0.02394306124394113,0.4618339496483856,0.5492328575941902,-0.06345584670186344,02001,020013714,02,Baja California,Ensenada,Parcela Treinta y Cuatro (Ejido Nacionalista),21,-116.5642286111111,31.757426666666667
0.01904248708830988,0.4602583898095245,0.5456937485870829,-0.06639287168924851,02001,020013717,02,Baja California,Ensenada,Parcela Número Treinta y Seis (Triple A),32,-116.55913472222224,31.758795833333338
0.03563434410720994,0.46582962018066487,0.4937223295708746,0.007741634717000179,02001,020013724,02,Baja California,Ensenada,Parcela Número Cuarenta y Siete (Ejido Nacionalista),8,-116.57730833333332,31.754735555555555
0.03200723914044003,0.4644882436678345,0.5106296247351758,-0.014134141926901322,02001,020013725,02,Baja California,Ensenada,Parcela Cuarenta y Ocho (Ejido Nacionalista),13,-116.57290555555556,31.755368611111113
0.02860186987140795,0.46335867734276176,0.5372628634040575,-0.04530231618988778,02001,020013726,02,Baja California,Ensenada,Parcela Cuarenta y Nueve (Ejido Nacionalista),22,-116.56913333333333,31.75579861111111
0.02482043739962131,0.4621272081841637,0.5791429102320355,-0.09219526464825045,02001,020013727,02,Baja California,Ensenada,Parcela Número Cincuenta (Ejido Nacionalista),52,-116.56495055555555,31.75627666666667
0.01132016530093299,0.4583801672308223,0.5566958802720995,-0.08699554774034418,02001,020013730,02,Baja California,Ensenada,Parcela Número Cincuenta y Tres (Ejido Nacionalista),14,-116.55207222222222,31.756965555555556
0.04342515215635485,0.47211366971049745,0.582445369733101,-0.06690654786624872,02001,020013732,02,Baja California,Ensenada,Parcela Número Cincuenta y Siete (Familia Arce),80,-116.59671138888888,31.743323611111112
0.04007927939562232,0.469570073451599,0.5619179627786787,-0.05226860993145732,02001,020013733,02,Baja California,Ensenada,Parcela Número Cincuenta y Ocho (Ejido Nacionalista),17,-116.58831722222222,31.74508666666667
0.0205338214166409,0.4614038337122014,0.6081521766914275,-0.12621452156258522,02001,020013738,02,Baja California,Ensenada,Parcela Número Sesenta y Cuatro (Ejido Nacionalista),291,-116.56063555555556,31.748701944444445
0.01619538252590155,0.46029577829564705,0.7273758809537285,-0.25088472013217994,02001,020013740,02,Baja California,Ensenada,Parcela Número Sesenta y Seis (Ejido Nacionalista),20,-116.55681944444444,31.748524444444445
0.05074101976642127,0.4748708226405879,0.5063743808753499,0.019237461531659283,02001,020013741,02,Baja California,Ensenada,Parcela Número Sesenta y Siete (Las Palmas),14,-116.60395222222222,31.73531138888889
0.04004386949291735,0.4696161789335558,0.5492353970307653,-0.039575348604292127,02001,020013742,02,Baja California,Ensenada,Parcela Número Setenta (Ejido Nacionalista),17,-116.58816138888888,31.74304638888889
0.03462200259258185,0.4656840177031857,0.6244300385285049,-0.12412401823273733,02001,020013744,02,Baja California,Ensenada,Colonia Benito Juárez,303,-116.57455055555556,31.74210638888889
0.02961897171649905,0.4641353815583198,0.6328682434157884,-0.13911389014096953,02001,020013746,02,Baja California,Ensenada,Don Loreto (Parcela Setenta y Siete) [Rancho],16,-116.56951527777775,31.744253333333333
0.02605806652442453,0.46304137258839767,0.6052566976647082,-0.11615725855188602,02001,020013747,02,Baja California,Ensenada,Parcela Setenta y Ocho (Ejido Nacionalista),17,-116.56581722222222,31.745145
0.04236993658023304,0.472127726412422,0.6095347770316593,-0.09503711403900417,02001,020013749,02,Baja California,Ensenada,Alegre [Rancho],9,-116.59522027777776,31.73569416666667
0.04547247263688658,0.4736335904416216,0.5757739003204468,-0.05666783724193869,02001,020013751,02,Baja California,Ensenada,Parcela Número Ochenta y Cinco (Ejido Nacionalista),25,-116.59836166666666,31.72914833333333
0.04022035828626481,0.47094899549312247,0.6401034024718193,-0.12893404869243197,02001,020013752,02,Baja California,Ensenada,Sandoval (Parcela Noventa) [Rancho],17,-116.58976166666666,31.73031083333333
0.05613767885442525,0.4787855531513297,0.6134319919536575,-0.07850875994790252,02001,020013753,02,Baja California,Ensenada,Victoria (Parcela Noventa y Tres) [Rancho],8,-116.61347277777776,31.722198888888887
0.04503729582803759,0.47370818279970694,0.5286122242179465,-0.009866745590201953,02001,020013755,02,Baja California,Ensenada,Parcela Noventa y Seis (Ejido Nacionalista),7,-116.59777666666666,31.725993055555556
0.03960846556922524,0.4709357597663684,0.5420811599519749,-0.031536934616381296,02001,020013756,02,Baja California,Ensenada,Parcela Noventa y Ocho,32,-116.5883572222222,31.72595611111111
0.03880584452465116,0.47027357235581774,0.5971304455540634,-0.08805102867359449,02001,020013760,02,Baja California,Ensenada,Parcela Número Ciento Cinco (Ejido Nacionalista),294,-116.58582083333332,31.725280555555553
0.05729463355363618,0.48181089465848265,0.7427821806985582,-0.2036766524864393,02001,020013763,02,Baja California,Ensenada,Mi Ranchito,15,-116.62119805555557,31.712509166666667
0.05865048742189273,0.4830878469882868,0.6419745536408407,-0.10023621923066117,02001,020013765,02,Baja California,Ensenada,Parcela Número Ciento Trece (Ejido Nacionalista),13,-116.62527916666666,31.7111425
0.05580158745545822,0.4809962426849655,0.6075363901868176,-0.0707385600463939,02001,020013768,02,Baja California,Ensenada,Parcela Número Ciento Quince (Ejido Nacionalista),11,-116.6183761111111,31.71229472222222
0.04003077475328365,0.4724838119176243,0.6589542261041015,-0.1464396394331935,02001,020013770,02,Baja California,Ensenada,Parcela Número Ciento Diecisiete (Rancho Lucero),70,-116.5914936111111,31.71784111111111
0.03346727420388105,0.4687433370174921,0.5459112483032603,-0.043700637081887206,02001,020013773,02,Baja California,Ensenada,Parcela Número Ciento Veinte (Ejido Nacionalista),19,-116.5778272222222,31.7180875
0.03584527895129593,0.46942703896874766,0.6383054507426528,-0.1330331328226092,02001,020013774,02,Baja California,Ensenada,Parcela Ciento Veinticuatro (Ejido Nacionalista),33,-116.58032083333332,31.71791861111111
0.09870215461502509,0.4789638163293407,0.5823778897377133,-0.004711918793347536,02001,020013776,02,Baja California,Ensenada,Parcela Ciento Veintinueve (Ejido Nacionalista),25,-116.61137388888888,31.71170111111111
0.09870215461502509,0.4751920074568986,0.592334092427924,-0.018439930356000334,02001,020013777,02,Baja California,Ensenada,Parcela Ciento Veintinueve (Ejido Nacionalista),14,-116.5995022222222,31.714089722222223
0.04315882026830035,0.4739818121825653,0.5805720696813974,-0.0634314372305318,02001,020013778,02,Baja California,Ensenada,Parcela Ciento Treinta y Dos (Ejido Nacionalista),14,-116.59561333333332,31.714625833333333
0.03803589809569712,0.471547852479088,0.575684536283472,-0.06610078570868694,02001,020013780,02,Baja California,Ensenada,Parcela Ciento Treinta y Cuatro (Ejido Nacionalista),20,-116.58693083333333,31.714569444444443
0.03417120525038522,0.4702690603994624,0.5484615511747502,-0.044021285524902476,02001,020013781,02,Baja California,Ensenada,Parcela Número Ciento Treinta y Tres (Ejido Nacionalista),9,-116.58138888888888,31.712777777777777
0.05282553628135524,0.4813875568424517,0.5766877494285892,-0.04247465630478231,02001,020013783,02,Baja California,Ensenada,Parcela Número Ciento Treinta y Nueve (Ejido Nacionalista),47,-116.61741,31.704010277777776
0.05058784303074942,0.4797670629380798,0.591494630456331,-0.06113972448750182,02001,020013784,02,Baja California,Ensenada,Parcela Número Ciento Cuarenta (Ejido Nacionalista),141,-116.61155638888889,31.7037525
0.04240044365122251,0.47538323928796,0.643081501708477,-0.12529781876929447,02001,020013795,02,Baja California,Ensenada,Parcela Ciento Sesenta (Ejido Nacionalista),4,-116.59628055555557,31.704910277777778
0.02715062171810681,0.4721698865824031,0.5950938619993051,-0.09577335369879525,02001,020013797,02,Baja California,Ensenada,Parcela Número Ciento Cincuenta y Siete (Ejido Nacionalista),10,-116.5844325,31.7032375
0.02180854689946507,0.4709094626727921,0.5258128523368748,-0.033094842764617605,02001,020013798,02,Baja California,Ensenada,Parcela Número Ciento Cincuenta y Ocho (Ejido Nacionalista),14,-116.58055555555556,31.704722222222223
0.01670905262463137,0.4689389288998846,0.5884514888732,-0.10280350734868404,02001,020013799,02,Baja California,Ensenada,Parcela Ciento Sesenta y Cinco (Ejido Nacionalista),8,-116.5748322222222,31.708704166666667
0.05191999619438107,0.482967055434896,0.6247255540988734,-0.08983850246959635,02001,020013801,02,Baja California,Ensenada,Parcela Número Ciento Sesenta y Dos (Ejido Nacionalista),9,-116.62066277777777,31.69718444444445
0.048176547428868,0.4798325643803608,0.5987930369279486,-0.07078392511871978,02001,020013802,02,Baja California,Ensenada,Tamayo [Rancho],12,-116.60964722222222,31.69867111111111
0.04747188532961583,0.4813858412889898,0.5594890844754323,-0.03063135785682669,02001,020013804,02,Baja California,Ensenada,Parcela Número Ciento Sesenta y Ocho (Ejido Nacionalista),25,-116.61379722222222,31.694105
0.02800597030753777,0.47358529197441857,0.6928452577707687,-0.19125399548881228,02001,020013805,02,Baja California,Ensenada,Santa Juquila [Colonia],629,-116.58798555555556,31.699986388888888
0.04697373360926876,0.4835292436066934,0.714548008120794,-0.18404503090483182,02001,020013807,02,Baja California,Ensenada,Parcela Número Ciento Setenta y Cinco (Ejido Nacionalista),30,-116.6202847222222,31.68952722222222
0.0422646279531621,0.4834846203752259,0.7216574986234232,-0.19590825029503522,02001,020013812,02,Baja California,Ensenada,Parcela Número Ciento Ochenta y Siete (Ejido Nacionalista),23,-116.6191425,31.68543777777778
9.07730706703794e-4,0.4680158855969497,0.6316021549722827,-0.1626785386686292,02001,020013815,02,Baja California,Ensenada,Parcela Número Doscientos Treinta y Uno (Rancho el Refugio del Viejo),555,-116.56083361111112,31.68961138888889
0.01747569188773518,0.5271958076208025,0.6602684986292762,-0.1155969991207384,02001,020013825,02,Baja California,Ensenada,Pitones,11,-116.76337916666668,32.01752888888889
7.874662602748774e-4,0.45976089122342223,0.7100126262361431,-0.24946426875244604,02001,020013828,02,Baja California,Ensenada,Ejido Delicias,76,-114.71071,30.687500833333335
1.0082737606341495e-5,0.4626376321613184,0.5558596827639569,-0.09321196786503216,02001,020013870,02,Baja California,Ensenada,Rancho Cimarrón,6,-116.6101425,31.9080625
0.04158686902707528,0.47426160055000566,0.6355660888565964,-0.11971761927951541,02001,020013888,02,Baja California,Ensenada,El Águila (Ejido Nacionalista),6,-116.59429416666666,31.70922277777778
3.794809417028776e-4,0.4756726457248642,0.6690460386601007,-0.19299391199353366,02001,020013920,02,Baja California,Ensenada,El Mirador,28,-116.57814305555556,31.665616666666665
0.02460479230123561,0.46547994403951976,0.6501010950736936,-0.16001635873293824,02001,020013922,02,Baja California,Ensenada,El Nopal,14,-116.58678916666666,31.80327666666667
1.926464573976844e-4,0.40357454446540425,0.727928803460363,-0.3241616125375611,02001,020013963,02,Baja California,Ensenada,Villas Mar de Cortez (Rancho Grande),13,-114.4137238888889,29.792599444444445
0.00166309885818185,0.4547115293383649,0.5797292663178287,-0.123354638121282,02001,020014068,02,Baja California,Ensenada,San Carlos (Ejido Nacionalista),505,-116.54025388888888,31.760074444444445
0.0406092248830537,0.46979294765078905,0.5619905031857048,-0.05158833065186197,02001,020014075,02,Baja California,Ensenada,San Isidro (Ejido Nacionalista),13,-116.59255972222222,31.765988055555557
1.0082737606341495e-5,0.4508518486135011,0.6894628476892242,-0.23860091633811675,02001,020014128,02,Baja California,Ensenada,San Gabriel,44,-116.56602916666668,31.90461305555555
0.0542560384514953,0.480427985735744,0.5585923384553769,-0.023908314268137554,02001,020014182,02,Baja California,Ensenada,Rancho Verdugo (Ejido Nacionalista),6,-116.61612055555555,31.710990833333337
0.0520781489288391,0.4756137314718546,0.5562453586149672,-0.028553478214273453,02001,020014183,02,Baja California,Ensenada,Familia Lara (Ejido Nacionalista),39,-116.60519472222222,31.73079
0.02452708555172603,0.47056457453869394,0.5754322400897244,-0.08034057999930444,02001,020014186,02,Baja California,Ensenada,Familia Bravo (Ejido Nacionalista),8,-116.58009916666666,31.706899166666663
0.01167275571049618,0.4902187501714151,0.5536708933862513,-0.05177938750434008,02001,020014317,02,Baja California,Ensenada,Los Pirules,7,-116.70808,31.910184444444443
0.06215571346964264,0.49775246555433006,0.6245525383199897,-0.06464435929601697,02001,020014342,02,Baja California,Ensenada,Campo Número Nueve,7,-116.71088944444443,31.716982777777776
1.8292710844097096e-4,0.4768741305667729,0.7866595818239325,-0.3096025241487186,02001,020014390,02,Baja California,Ensenada,Playa el Porvenir,66,-114.70490055555555,30.826579166666665
0.00679760287970132,0.4824622299965919,0.6966737417971794,-0.20741390892088624,02001,020014444,02,Baja California,Ensenada,El Morro,605,-115.18694444444444,28.0425
0.0556938430496273,0.48626687835926496,0.5977458690564385,-0.05578514764754616,02001,020014523,02,Baja California,Ensenada,II Sección Ejido Esteban Cantú,245,-116.63290472222222,31.694926944444443
0.0164385908469797,0.527076607023717,0.6902205273512902,-0.14670532948059356,02001,020014549,02,Baja California,Ensenada,Rancho Carrillo,12,-116.75152916666669,32.0260825
3.952190595019299e-5,0.46298507661486377,0.5991801912205587,-0.1361555926997447,02001,020014552,02,Baja California,Ensenada,Malacara [Rancho],46,-116.54081805555556,31.694213333333337
0.05326072014574138,0.4772384809366037,0.6617006659903685,-0.13120146490802342,02001,020014592,02,Baja California,Ensenada,Ibarra [Rancho],62,-116.60823,31.72191638888889
0.1,0.47513114032322096,0.5409045843925497,0.034226555930671254,02001,020014634,02,Baja California,Ensenada,El Salitral,533,-116.60544472222222,31.738131666666668
0.008179041603037,0.4578615346827703,0.5724368032608069,-0.10639622697499962,02001,020014635,02,Baja California,Ensenada,Colonia Esperanza (Cañón San Carlos),878,-116.54993833333332,31.755785555555555
0.04614693477354704,0.4726049416878522,0.6534853085660931,-0.1347334321046938,02001,020014638,02,Baja California,Ensenada,Brisas del Mar [Colonia],58,-116.60132527777778,31.7603125
0.05127776974663655,0.474763759268588,0.660212247358691,-0.1341707183434665,02001,020014656,02,Baja California,Ensenada,Rancho Jesús Valdez,13,-116.60721305555556,31.751898611111113
0.00703816551362721,0.4622791261400758,0.688315114134962,-0.21899782248125899,02001,020014778,02,Baja California,Ensenada,La Escondida,20,-116.5559125,31.72307
0.0736774683552367,0.45042284270549593,0.5556935231904504,-0.031593212129717774,02001,020014877,02,Baja California,Ensenada,Ninguno,14,-116.56123083333333,31.881564444444447
0.01786207996242421,0.4634669679373058,0.6273060462686373,-0.14597699836890726,02001,020014900,02,Baja California,Ensenada,San Jorge Uno,25,-116.58128277777776,31.81062138888889
0.04603026647129786,0.4720757790659254,0.6278509023292219,-0.10974485679199864,02001,020014903,02,Baja California,Ensenada,Las Brisas Dos,36,-116.60373722222222,31.774002777777778
0.04766884220534436,0.47363166018243863,0.6696557850830398,-0.14835528269525677,02001,020014904,02,Baja California,Ensenada,Fraccionamiento Alvarado,35,-116.6033936111111,31.75240611111111
0.03151085563745825,0.46435698608461173,0.6202976183236911,-0.12442977660162113,02001,020014908,02,Baja California,Ensenada,Familia González,22,-116.57358416666666,31.76108138888889
0.02991818810567752,0.4640568032441631,0.6151183364261351,-0.12114334507629448,02001,020014909,02,Baja California,Ensenada,San José [Granja],20,-116.57348305555556,31.767858888888888
0.0156929717982221,0.49693494815635497,0.532406004474722,-0.019778084520144845,02001,020014918,02,Baja California,Ensenada,Lomas de San Miguel,27,-116.73594555555556,31.910619444444443
0.00414194088640548,0.4954680597959527,0.6680509527278079,-0.16844095204544973,02001,020014920,02,Baja California,Ensenada,San Marcos,6,-116.68660333333334,31.996243333333336
0.01257151585623263,0.4947533721920647,0.5479558376406832,-0.04063094959238589,02001,020014925,02,Baja California,Ensenada,Balcones Cíbolas del Mar,152,-116.72882888888888,31.90255222222222
0.0128520494160339,0.4954815381481339,0.48953065899418247,0.018802928569985333,02001,020014930,02,Baja California,Ensenada,Playa Cibola del Mar,8,-116.73240333333334,31.90183972222222
0.0037865201054041,0.46000864140569847,0.6361224726869167,-0.17232731117581412,02001,020014943,02,Baja California,Ensenada,Reforma el Veladero,756,-116.55205305555556,31.7322875
1.0082737606341495e-5,0.4469490284445323,0.5934712640849346,-0.1465121529027959,02001,020014965,02,Baja California,Ensenada,Rancho 3 Hermanos,5,-116.54971444444443,31.8855925
0.00703816551362721,0.4622984089410426,0.6744050750518181,-0.20506850059714826,02001,020014972,02,Baja California,Ensenada,La Escondida,246,-116.55646166666666,31.723961944444444
0.02627934028963954,0.4796252317323183,0.6511714746793389,-0.14526690265738107,02001,020014973,02,Baja California,Ensenada,Brechas el Mirador,247,-116.60352944444443,31.68346194444445
0.01559484146702145,0.4621536957241953,0.6329364195344401,-0.1551878823432234,02001,020014980,02,Baja California,Ensenada,San Marino,61,-116.57714055555554,31.81214444444445
7.844914193556677e-4,0.46261868984292454,0.6349345814761976,-0.17153140021391744,02001,020015025,02,Baja California,Ensenada,Villas del Mar,216,-116.54503055555556,31.701116666666667
1.4196604938416664e-5,0.4631228437746793,0.5750688377324926,-0.1119317973528749,02001,020015026,02,Baja California,Ensenada,Familia Laurian,19,-116.538265,31.690450277777774
0.05236372389443543,0.4778868220052976,0.5615853457266293,-0.031334799826896353,02001,020015027,02,Baja California,Ensenada,Rancho Liborio Silva,14,-116.60878277777778,31.715901666666667
0.02886943849319043,0.4811670343513809,0.616833852226711,-0.10679737938213973,02001,020015028,02,Baja California,Ensenada,Parcela Ciento Setenta y Cinco A,11,-116.60859111111112,31.680869444444447
0.03414451449695079,0.4798869509008989,0.7205055102552752,-0.2064740448574255,02001,020015029,02,Baja California,Ensenada,Parcela Doscientos Seis,38,-116.6054347222222,31.6859225
0.01394622476482175,0.4793515231798219,0.7358110958542845,-0.24251334790964085,02001,020015037,02,Baja California,Ensenada,Colinas del Pedregal,130,-116.6005447222222,31.678778611111113
1.7252096289451348e-4,0.4629596170143777,0.7370988321473909,-0.2739666941701187,02001,020015086,02,Baja California,Ensenada,Costa Verde,15,-114.65417444444444,30.5524725
0.01591726149153969,0.5489559355084161,0.5992351583523436,-0.03436196135238778,02001,020015122,02,Baja California,Ensenada,Lindavista,13,-116.85695277777778,31.99769
0.00204177340349523,0.49168970905103615,0.6114743655947497,-0.1177428831402183,02001,020015154,02,Baja California,Ensenada,JC [Rancho],8,-116.67888361111112,31.986370555555556
0.06308110178503971,0.49044701121743145,0.5864241341947584,-0.032896021192287184,02001,020015155,02,Baja California,Ensenada,Coronel Esteban Cantú [Tercera Sección],31,-116.65361777777778,31.712650555555555
0.02612552582004777,0.48149298847794847,0.6585311309213983,-0.15091261662340205,02001,020015161,02,Baja California,Ensenada,El Pedregal,23,-116.60918444444444,31.67905111111111
0.01632274514989035,0.4771198698590432,0.6198710824846307,-0.1264284674756972,02001,020015162,02,Baja California,Ensenada,El Sauco,10,-116.5951972222222,31.686099722222224
0.05774100500329847,0.4864323593264782,0.6074698609100891,-0.06329649658031244,02001,020015163,02,Baja California,Ensenada,La Hermosa del Sauco,56,-116.63454166666668,31.697888055555556
0.05173059882277667,0.47641408043473993,0.5759510774787597,-0.04780639822124311,02001,020015164,02,Baja California,Ensenada,Monte de Sión,27,-116.60569944444444,31.72254388888889
0.0736774683552367,0.489536517582967,0.6291226444170769,-0.06590865847887317,02001,020015165,02,Baja California,Ensenada,Ninguno,10,-116.64689055555556,31.695135555555556
0.06192721818846953,0.4879253388367889,0.5788081622993151,-0.028955605274056606,02001,020015166,02,Baja California,Ensenada,Naomy [Mini Hotel],20,-116.6416775,31.70674888888889
0.03948820990838107,0.469050378610696,0.5673933811481838,-0.058854792629106756,02001,020015167,02,Baja California,Ensenada,Rancho Virginia del Mar,19,-116.58589083333332,31.740626944444447
0.05794562847584949,0.47832600163647165,0.6536921753607138,-0.11742054524839263,02001,020015168,02,Baja California,Ensenada,San Miguel,327,-116.61372527777776,31.72939222222222
0.05214920678782259,0.475365149424699,0.5688677625256906,-0.04135340631316908,02001,020015170,02,Baja California,Ensenada,Villa del Mar [Colonia],293,-116.60529194444445,31.73435638888889
1.0082737606341495e-5,0.4471127235308652,0.591947935975131,-0.14482512970665945,02001,020015171,02,Baja California,Ensenada,Che Guevara [Fraccionamiento],88,-116.54755805555556,31.875101666666662
0.0015417580825615,0.4579958942077806,0.766138340967643,-0.3066006886773009,02001,020015185,02,Baja California,Ensenada,El Rincón del Veladero,60,-116.54399444444444,31.73000861111111
0.0736774683552367,0.4625744246398354,0.6099045630019951,-0.073652670006923,02001,020015198,02,Baja California,Ensenada,Ninguno,42,-116.55670166666668,31.72247944444444
1.121014388833828e-4,0.4645488122578749,0.5925666144715663,-0.127905700774808,02001,020015200,02,Baja California,Ensenada,Nueva España,249,-116.5457325,31.69131972222222
0.03760253883556987,0.4690142218691637,0.5241127500650549,-0.017495989360321262,02001,020015202,02,Baja California,Ensenada,Parcela Número Ciento Diez,19,-116.58155111111112,31.72598833333333
0.03802013633791924,0.4691794873416016,0.518842875719948,-0.011643252040427154,02001,020015204,02,Baja California,Ensenada,Parcela Número Cien [Ejido Nacionalista],7,-116.5825997222222,31.727361666666663
2.2031163719583937e-5,0.4229909281069588,0.8182083030456401,-0.3951953437749617,02001,020015260,02,Baja California,Ensenada,Santa Teresa (Piedra de Oro),6,-114.64112777777778,30.38724722222222
0.064274503275682085,0.4980293145792802,0.6279724379714348,-0.06566862011647245,02001,020015264,02,Baja California,Ensenada,Ninguno [Jesús Cárdenas],11,-116.70923611111112,31.733252777777775
0.00270767640456221,0.461043509039069,0.6501962244721181,-0.18644503902848691,02001,020015277,02,Baja California,Ensenada,Los Girasoles,60,-116.55268333333332,31.72555
0.041556323896353727,0.47117526677594007,0.60282918354425,-0.09009759287195618,02001,020015287,02,Baja California,Ensenada,Arce [Colonia],244,-116.59309444444445,31.74084722222222
0.03477658886136321,0.4750470079106286,0.76115630331435,-0.2513327065423582,02001,020015289,02,Baja California,Ensenada,Parcela Número 177,15,-116.59268888888889,31.699313888888888
0.04589347495393817,0.47306810933670046,0.6420010018683764,-0.12303941757773773,02001,020015297,02,Baja California,Ensenada,Fortunes Fashions Baja [Fábrica],96,-116.60043333333331,31.74581388888889
1.0082737606341495e-5,0.45567516767598937,0.6262328616301357,-0.17054761121654,02001,020015299,02,Baja California,Ensenada,Rancho Verde (Cañon Ensenada),19,-116.58453055555556,31.91695277777778
0.00488290211805188,0.57650153290904,0.6575792127266372,-0.0761947776995453,02001,020015328,02,Baja California,Ensenada,Úrsulo Galván Segunda Sección,34,-116.86790111111112,32.037615833333334
0.04863463147991678,0.4772149131762722,0.599500561843121,-0.07365101718693201,02001,020015459,02,Baja California,Ensenada,Alcalá [Rancho],10,-116.6043525,31.708379444444443
0.04688494737813732,0.4730097337681735,0.6543761519127096,-0.13448147076639871,02001,020015460,02,Baja California,Ensenada,Colonia Bienestar,93,-116.6025675,31.75948861111111
0.0510797863250686,0.47951705674967343,0.5840187913925239,-0.0534219483177818,02001,020015461,02,Baja California,Ensenada,Cárdenas,26,-116.61149527777778,31.705702777777777
7.615575385655575e-4,0.47100265430698535,0.6769006598345372,-0.20513644798898628,02001,020015462,02,Baja California,Ensenada,Miramar [Rancho],41,-116.56946527777778,31.68323611111111
0.05803246558476652,0.479000365260164,0.6312210073042112,-0.09418817645928068,02001,020015465,02,Baja California,Ensenada,Parcela Noventa,10,-116.61522444444444,31.72605944444444
0.0019411306689987,0.46658387295878434,0.5939580995687153,-0.12543309594093222,02001,020015467,02,Baja California,Ensenada,Arroyo Blanco [Rancho],8,-116.56236388888888,31.70153861111111
0.01075951806005022,0.4713062129004357,0.6137854837409488,-0.13171975278046288,02001,020015472,02,Baja California,Ensenada,Agrícola San Luis [Rancho],14,-116.5792361111111,31.697972222222223
3.9647600174132273e-4,0.46802857120524194,0.7513496528653572,-0.2829246056583739,02001,020015474,02,Baja California,Ensenada,Los Laureles [Rancho],14,-116.55613166666666,31.68398611111111
7.259197132298333e-4,0.46905948629430194,0.6578513344781137,-0.18806592847058196,02001,020015475,02,Baja California,Ensenada,Campo de Esperanza,25,-116.56190583333331,31.684930277777777
0.00711303919989916,0.4653473379317486,0.5793016213016129,-0.10684124416996515,02001,020015477,02,Baja California,Ensenada,Santo Tomás,17,-116.549985,31.691676944444445
0.03057428721703342,0.4804676499990744,0.640487570556734,-0.1294456333406262,02001,020015479,02,Baja California,Ensenada,Andalucía,13,-116.60667527777775,31.68310111111111
0.003713256389116,0.46132975762511474,0.6127684396207269,-0.14772542560649615,02001,020015483,02,Baja California,Ensenada,Familia Muñiz (Colonia el Veladero),6,-116.55470638888887,31.727520277777774
0.00136944032803189,0.4656071001874098,0.6536599609037652,-0.18668342038832353,02001,020015486,02,Baja California,Ensenada,Familia Cárdenas,11,-116.55519472222224,31.69662444444445
0.01525125555227921,0.4597127047656321,0.5968100880154306,-0.12184612769751929,02001,020015488,02,Baja California,Ensenada,Parcela Sesenta y Siete (Las Haciendas),45,-116.5555263888889,31.75216444444445
0.01402469300114155,0.46042217390425466,0.7832001334928528,-0.30875326658745655,02001,020015496,02,Baja California,Ensenada,Zona el Veladero Manzana (Dieciséis),21,-116.55647805555556,31.7432975
0.02073190081016066,0.4606161753043435,0.6420359360081712,-0.16068785989366707,02001,020015501,02,Baja California,Ensenada,Parcela Número Dieciocho,45,-116.56198083333334,31.7653975
0.03181881375173742,0.4646356278060272,0.553816083287469,-0.05736164172970443,02001,020015502,02,Baja California,Ensenada,Familia Vázquez,12,-116.57491,31.764556111111112
0.04889241270250239,0.47499010588182594,0.5669251467486239,-0.043042628164295604,02001,020015505,02,Baja California,Ensenada,La Grava,79,-116.60175138888889,31.72519222222222
0.05434959700245689,0.4774863041142017,0.5610543766543389,-0.02921847553768031,02001,020015506,02,Baja California,Ensenada,El Antiguo Taste,9,-116.60954194444444,31.723770833333333
0.05677453285649399,0.4765687364188493,0.6291157055762538,-0.09577243630091059,02001,020015525,02,Baja California,Ensenada,Comunidad Cristiana el Alfarero,17,-116.61051527777778,31.73991861111111
0.05113320830117127,0.47474718421491136,0.6537511265607744,-0.12787073404469174,02001,020015528,02,Baja California,Ensenada,Colonia Xochiltepec,30,-116.60751805555554,31.753721944444443
0.0540342648865478,0.4758113732417855,0.6528552030336835,-0.1230095649053502,02001,020015530,02,Baja California,Ensenada,Los Compadres [Rancho],9,-116.61253055555557,31.75911
0.05006804412976003,0.474433910411174,0.6519752402852801,-0.12747328574434602,02001,020015531,02,Baja California,Ensenada,Familia Gómez (El Salitral),7,-116.607405,31.75864138888889
0.1,0.4731902362483173,0.6507954258966543,-0.07760518964833696,02001,020015532,02,Baja California,Ensenada,El Salitral,20,-116.60533138888889,31.76756444444444
0.02132454966300311,0.4772738478107808,0.7381377150520118,-0.23953931757822783,02001,020015537,02,Baja California,Ensenada,Jireh [Rancho],23,-116.59635361111113,31.687671666666667
0.02085164650213832,0.47762746255184985,0.7295535942948972,-0.231074485240909,02001,020015539,02,Baja California,Ensenada,Parcela Doscientos Veintiuno,19,-116.59722333333332,31.686497222222226
0.04458604257314263,0.4819373544035356,0.6289481504819782,-0.1024247535053,02001,020015540,02,Baja California,Ensenada,Parcela Ciento Ochenta y Cuatro,41,-116.6144761111111,31.68978027777778
0.04356303896406276,0.47377345294499507,0.592332580515621,-0.07499608860656315,02001,020015542,02,Baja California,Ensenada,Familia Villegas,7,-116.59633027777777,31.71947111111111
0.04278422128988082,0.4741089501162932,0.6399876339250078,-0.12309446251883371,02001,020015546,02,Baja California,Ensenada,Quiñones [Rancho],10,-116.5952225,31.71247083333333
0.05070426874740146,0.47908357005888824,0.5879135191078357,-0.05812568030154608,02001,020015551,02,Baja California,Ensenada,El Chueco,27,-116.61017,31.706255
0.03866011276452103,0.4693035024887017,0.621833509922904,-0.11386989466968123,02001,020015552,02,Baja California,Ensenada,Huerta [Rancho],118,-116.58426222222222,31.730950555555555
0.03756866516308062,0.4707743898053011,0.6636801921343723,-0.15533713716599062,02001,020015554,02,Baja California,Ensenada,Pimentel [Rancho],41,-116.58476638888888,31.71633333333333
0.03490292653559898,0.46569442683465656,0.5545129865256444,-0.05391563315538883,02001,020015559,02,Baja California,Ensenada,Colonia los Encinos [Hacienda],13,-116.5750586111111,31.74521027777778
0.03501498110846544,0.4821141910476367,0.7814467376286229,-0.26431756547252083,02001,020015665,02,Baja California,Ensenada,Las Brechas,63,-116.61278,31.681766666666668
0.03124789478631851,0.4644986561062394,0.6079496340503157,-0.11220308315775773,02001,020015692,02,Baja California,Ensenada,Martinez [Rancho],41,-116.57121277777776,31.746909722222224
0.0408557048480393,0.4798813697059592,0.5998138712457871,-0.07907679669178858,02001,020015694,02,Baja California,Ensenada,Soledad [Rancho],10,-116.60680416666666,31.689725555555555
0.03942154244103359,0.4673607899865383,0.6065578681641601,-0.09977553573658826,02001,020015695,02,Baja California,Ensenada,San Carlos,15,-116.58333888888887,31.7593275
0.03342690166556535,0.4654011236917593,0.5798146374870021,-0.0809866121296775,02001,020015696,02,Baja California,Ensenada,El Palmar [Rancho],17,-116.57796,31.76817361111111
0.03155352515674466,0.46433521005665385,0.5445499683141785,-0.048661233100779966,02001,020015697,02,Baja California,Ensenada,Jardín Campestre,8,-116.57259638888888,31.75633611111111
0.00124288145948439,0.47089429090197493,0.664308927559242,-0.19217175519778268,02001,020015763,02,Baja California,Ensenada,Parcela Doscientos Veintinueve,28,-116.57107888888888,31.686318333333332
0.03898125918915864,0.4684225576670388,0.5632768878988881,-0.05587307104269068,02001,020015769,02,Baja California,Ensenada,Parcela Setenta y Tres,17,-116.58431972222222,31.744634444444447
0.06308115727534505,0.4917668940506908,0.5745661727041842,-0.019718121378148323,02001,020015907,02,Baja California,Ensenada,Campo Meneses,3,-116.66154111111112,31.718094166666663
0.00331959202263331,0.48301961772722074,0.5986037816320251,-0.11226457188217104,02001,020015921,02,Baja California,Ensenada,Familia Santana,9,-116.67836805555557,31.923615
0.01777569501268474,0.46125843820092144,0.684902618632262,-0.20586848541865582,02001,020016454,02,Baja California,Ensenada,Familia Morales,5,-116.55926638888889,31.74293861111111
0.40174021717385666,0.6950323195186219,0.2437274966355748,0.8530450400569037,02002,020020001,02,Baja California,Mexicali,Mexicali,854186,-115.47557888888888,32.641175833333335
0.0787878787878788,0.7133046783589536,0.5539268515885857,0.2381657055582468,02002,020020106,02,Baja California,Mexicali,Poblado el Caimán,33,-115.19216972222225,32.2250625
0.15050317796610171,0.6879915520244003,0.3712498344033832,0.4672448955871188,02002,020020237,02,Baja California,Mexicali,Nuevo León,3776,-115.19066916666668,32.409974444444444
0.07065217391304347,0.648426957325531,0.5193989154513535,0.19968021578722095,02002,020020243,02,Baja California,Mexicali,Poblado Sombrerete,46,-115.0570347222222,32.16567
0.4146781449850675,0.32820968127568295,0.23902791032367768,0.5038599159370728,02002,020020284,02,Baja California,Mexicali,San Felipe,17143,-114.83890138888889,31.022920277777775
0.05714381344652968,0.6953664696141939,0.4996910125263889,0.2528192705343346,02002,020020394,02,Baja California,Mexicali,Ricardo Mazón Guerrero (Colonia Baja California el Polvorín),779,-115.104525,32.240629166666665
0.1730619074177356,0.7245829501493343,0.5685025677022875,0.32914228986478244,02002,020020402,02,Baja California,Mexicali,Puente Quemado (Colonia Venustiano Carranza),44,-115.18072527777778,32.25885111111111
0.35000000000000003,0.6800681507243175,0.6634212216542413,0.3666469290700761,02002,020020411,02,Baja California,Mexicali,Campo Mozqueda (Colonia Terrenos Indios),19,-115.27561638888888,32.15665305555555
0.00850728123049508,0.33474567504429636,0.5015289690051504,-0.15827601273035896,02002,020020412,02,Baja California,Mexicali,Ejido Plan Nacional Agrario,808,-114.88572111111112,31.08220888888889
0.00850728123049508,0.3361406625318304,0.47714983771298225,-0.13250189395065676,02002,020020414,02,Baja California,Mexicali,Playa del Sol,29,-114.86918277777777,31.090615555555555
0.00194371205890141,0.3386034985483951,0.4654167211375661,-0.12486951053026957,02002,020020417,02,Baja California,Mexicali,Petes Camp El Paraíso,84,-114.89131416666667,31.13172388888889
0.00201067657295819,0.34247660232942795,0.577987640912214,-0.23350036200982788,02002,020020598,02,Baja California,Mexicali,Los Amigos,10,-114.8901302777778,31.175160555555557
0.05636838263927266,0.4782110468462265,0.4717680084483266,0.06281142103717258,02002,020021195,02,Baja California,Mexicali,Ejido Doctor Alberto Oviedo Mota (El Indiviso),877,-114.98299416666669,32.02547222222222
0.02058200989650288,0.3316104824601829,0.5793961261505733,-0.22720363379388758,02002,020021343,02,Baja California,Mexicali,La Hacienda,29,-114.7771413888889,30.959929444444445
0.00194371205890141,0.33848180855727705,0.40690045984072937,-0.06647493922455089,02002,020021350,02,Baja California,Mexicali,Ventana del Mar,42,-114.89932305555556,31.136746944444443
0.01987263149736684,0.3232234718177376,0.48066127784998475,-0.13756517453488032,02002,020021365,02,Baja California,Mexicali,Poblado las Minitas,451,-114.83816527777778,30.97634111111111
0.00850728123049508,0.3368061151515867,0.5136962974867461,-0.16838290110466425,02002,020021415,02,Baja California,Mexicali,Campo Pai-Pai,11,-114.87607694444443,31.101391944444448
0.00850728123049508,0.3363053276436829,0.49101298613244143,-0.1462003772582634,02002,020021620,02,Baja California,Mexicali,Campo Ocotillos,28,-114.87460138888888,31.096351944444443
0.00194371205890141,0.33994576405290305,0.5283222457588655,-0.18643276964706107,02002,020021623,02,Baja California,Mexicali,Perlas [Campo],6,-114.89173972222224,31.14520027777778
0.04050019979785155,0.6698613359238198,0.5521906542361618,0.15817088148550962,02002,020021634,02,Baja California,Mexicali,Carrancita (Colonia Venustiano Carranza),87,-115.14081972222225,32.167431944444445
0.00748083289861233,0.3328760884692002,0.6506860890530595,-0.31032916768524693,02002,020021659,02,Baja California,Mexicali,Colonia Carlos Salinas de Gortari,6,-114.88495944444443,31.035731944444446
0.00194371205890141,0.34299766014533856,0.5943768424300458,-0.24943547022580587,02002,020021694,02,Baja California,Mexicali,El Dorado (Ejido Plan Nacional Agrario),113,-114.94508666666668,31.143875
0.00704951605746931,0.33304612067647754,0.4483767298570658,-0.10828109312311895,02002,020021824,02,Baja California,Mexicali,Kilómetro Ciento Ochenta y Seis,15,-114.87308472222222,31.056025833333333
0.01261004789587482,0.3404263865717685,0.6365667575159004,-0.2835303230482571,02002,020022089,02,Baja California,Mexicali,Vista Hermosa,8,-114.71490583333332,30.91510222222222
0.01183361684442235,0.34067675724102436,0.5911862674048384,-0.23867589331939165,02002,020022224,02,Baja California,Mexicali,Campo Lobo,10,-114.71390722222222,30.911514166666667
0.01931111768067146,0.3227352150197181,0.4179036571115886,-0.07585732441119908,02002,020022854,02,Baja California,Mexicali,Familia Zúñiga (Colonia Francisco Villa),6,-114.84244277777778,30.973265277777777
0.00194371205890141,0.33896515601153104,0.6225705430106916,-0.2816616749402591,02002,020022940,02,Baja California,Mexicali,Los Médanos (Ejido Plan Nacional Agrario),57,-114.92660416666668,31.100640555555557
0.00194371205890141,0.33782761633071856,0.5400586971990228,-0.2002873688094028,02002,020022966,02,Baja California,Mexicali,Palos Verdes Norte y Sur,181,-114.90794638888887,31.106784444444447
0.00194371205890141,0.33753891587515106,0.4867615302574886,-0.1472789023234361,02002,020023029,02,Baja California,Mexicali,Playa de Oro,35,-114.88977194444443,31.118894444444447
0.00194371205890141,0.3382261715128649,0.5019384413118883,-0.16176855774012194,02002,020023103,02,Baja California,Mexicali,Rancho del Sol (El Dorado),51,-114.90555027777778,31.122086666666668
0.01564838774505499,0.32617003071406714,0.4413341037106324,-0.09951568525151028,02002,020023112,02,Baja California,Mexicali,Ocotillo [Rancho],6,-114.84739583333332,31.006655277777774
0.00194371205890141,0.34079079246691957,0.6208274552716814,-0.2780929507458604,02002,020023450,02,Baja California,Mexicali,Los Viajeros (Ejido Plan Nacional Agrario),137,-114.94222472222222,31.092041388888887
0.0119560324014764,0.34027304071851916,0.5682625635851783,-0.21603349046518278,02002,020024803,02,Baja California,Mexicali,Misión los Sahuaros,12,-114.71634055555556,30.91003444444444
0.00194371205890141,0.34028700003467277,0.549218067234862,-0.2069873551412878,02002,020024892,02,Baja California,Mexicali,La Ponderosa,6,-114.8906688888889,31.14799361111111
0.01361252077940431,0.33731759214436274,0.5730601362074442,-0.22213002328367715,02002,020024909,02,Baja California,Mexicali,Perla del Mar,9,-114.73166166666668,30.939904722222224
0.00723939082675572,0.3358694467497174,0.4787647278351331,-0.13565589025865993,02002,020024931,02,Baja California,Mexicali,De un Rancho a Otro,27,-114.89080638888888,31.095985
0.00796256529140801,0.33365006481608805,0.49754092416668705,-0.155928294059191,02002,020024942,02,Baja California,Mexicali,Las Malvinas [Rancho],21,-114.87647805555557,31.065563611111113
0.00194371205890141,0.33809818945694253,0.5166339235358118,-0.17659202201996788,02002,020024945,02,Baja California,Mexicali,Bugambilias [Rancho],10,-114.8897677777778,31.12578277777778
0.02058200989650288,0.3290716582012664,0.4906919409526513,-0.14103827285488202,02002,020024952,02,Baja California,Mexicali,Villas San Francisco [Fraccionamiento],9,-114.79792777777776,30.97025833333333
0.1,0.648393360682662,0.5571510754000869,0.19124228528257503,02002,020025128,02,Baja California,Mexicali,Familia González,10,-115.60937916666666,32.56621638888888
0.00194371205890141,0.6974098567014344,0.5878016624103681,0.1115519063499677,02002,020025138,02,Baja California,Mexicali,La Ponderosa,66,-115.28732583333333,32.59429611111111
0.1,0.6927357181948242,0.5614162411024706,0.23131947709235356,02002,020025364,02,Baja California,Mexicali,Familia González,19,-115.20100583333334,32.44647194444444
0.02049183554886458,0.32186545152370155,0.603901206671096,-0.2615439195985299,02002,020025421,02,Baja California,Mexicali,Manzana Catorce,12,-114.83894583333333,30.961335833333333
0.01042963362115493,0.3302820029008252,0.548297367508746,-0.20758573098676586,02002,020025435,02,Baja California,Mexicali,Colonia Montaña y Mar,176,-114.86644166666666,31.023787777777777
0.00434593190292168,0.7959213690762711,0.5919090940305523,0.2083582069486405,02002,020025441,02,Baja California,Mexicali,Familia Cárdenas,12,-114.94613694444443,32.66547555555555
0.1,0.6399631553127083,0.4984121798862447,0.2415509754264636,02002,020025450,02,Baja California,Mexicali,Familia González,13,-115.01738972222222,32.32518138888889
0.7666674030525034,0.8300557718829286,0.16977385749528498,1.4269493174401469,02004,020040001,02,Baja California,Tijuana,Tijuana,1810645,-117.01891333333332,32.53246083333333
0.1001452950442427,0.5505243658516122,0.4775509174747997,0.17311874342105527,02004,020040719,02,Baja California,Tijuana,Valle Dorado,34,-116.95047111111111,32.41620388888889
0.10067772984828004,0.5933801670270963,0.620288004813633,0.07376989206174334,02004,020041351,02,Baja California,Tijuana,San Antonio,1159,-117.05944972222224,32.4265475
0.3,0.4180538029236213,0.4800622367200813,0.23799156620354,02004,020041428,02,Baja California,Tijuana,El Rosario,20,-116.74384083333334,32.534552777777776
0.12965333074022165,0.5944133443960015,0.4284794054201153,0.2955872697161078,02004,020041767,02,Baja California,Tijuana,Brisas del Mar,544,-117.09251666666668,32.42203416666666
0.2,0.5122053471643983,0.44845024438991193,0.2637551027744864,02004,020041787,02,Baja California,Tijuana,Ninguno,12,-116.80402944444444,32.489335833333335
0.10367503996134492,0.4379732212430172,0.5255122996458523,0.016135961558509715,02004,020041801,02,Baja California,Tijuana,Los Girasoles,1271,-116.77745166666666,32.47022527777778
0.1211663644464964,0.5747577559706847,0.47214334806763986,0.22378077234954125,02004,020041919,02,Baja California,Tijuana,San Marino,1369,-117.0900536111111,32.41444444444444
0.1427686460201487,0.5748594518425719,0.5730173278901812,0.1446107699725394,02004,020041956,02,Baja California,Tijuana,Familia González,20,-116.93483222222224,32.44300416666666
0.11043771043771045,0.4773803207572135,0.42760209394174115,0.16021593725318278,02004,020042048,02,Baja California,Tijuana,Alvarado,11,-116.77017388888888,32.524719166666664
0.10053812381260133,0.3508489279413239,0.6680675196801189,-0.21668046792619367,02004,020042081,02,Baja California,Tijuana,Los Laureles [Rancho],11,-116.74619444444444,32.46099277777778
0.3752132721935489,0.786151385383726,0.22547539978481307,0.9358892577924618,02005,020050001,02,Baja California,Playas de Rosarito,Playas de Rosarito,100660,-117.05445888888887,32.363684166666665
0.29905942181331285,0.5131467660061343,0.49673635625337387,0.3154698315660732,02005,020050076,02,Baja California,Playas de Rosarito,El Morro,30,-117.00915277777776,32.26820305555555
0.530958230958231,0.501974783451539,0.4053973888610754,0.6275356255486948,02005,020050086,02,Baja California,Playas de Rosarito,Popotla,37,-117.02866972222222,32.27755444444444
0.4250851531225363,0.3976382728571515,0.366279940762695,0.45644348521699285,02005,020050090,02,Baja California,Playas de Rosarito,Puerto Nuevo,111,-116.93445805555557,32.24259638888889
0.35000000000000003,0.4583008442787833,0.3639792757503473,0.4443215685284361,02005,020050176,02,Baja California,Playas de Rosarito,Ninguno,8,-116.93721333333332,32.2574675
0.35000000000000003,0.5117673791747814,0.5313206534264009,0.33044672574838063,02005,020050244,02,Baja California,Playas de Rosarito,Ninguno,20,-116.98282,32.261740555555555
0.2721543241295834,0.8343482546320561,0.5658851671179427,0.5406174116436967,02005,020050291,02,Baja California,Playas de Rosarito,El Sauco,18,-117.02348083333334,32.373979444444444
0.2831454433186892,0.5091338827872487,0.4685043897135379,0.32377493639239996,02005,020050304,02,Baja California,Playas de Rosarito,El Morro,62,-117.00111111111111,32.26416666666667
0.491025641025641,0.5019181526441792,0.52079187956442,0.47215191410540025,02005,020050305,02,Baja California,Playas de Rosarito,Puerto Popotla,29,-117.03498416666666,32.28187083333333
0.35000000000000003,0.3165215176771236,0.5198563146411476,0.14666520303597608,02005,020050317,02,Baja California,Playas de Rosarito,Ninguno,18,-116.91039888888888,32.23643388888889
0.47854118547679864,0.3072568292032903,0.13763436339403348,0.6481636512860555,02006,020060001,02,Baja California,San Quintín,San Quintín,4754,-115.93906138888887,30.556485277777774
0.3249533799533799,0.35154831573715195,0.3583822220562395,0.3181194736342924,02006,020060003,02,Baja California,San Quintín,ABC (Los Canelos) [Empaque],22,-115.97343638888889,30.67101694444445
0.3490316241677059,0.4832457742369593,0.28099737010629605,0.5512800282983692,02006,020060022,02,Baja California,San Quintín,Bahía de los Ángeles,781,-113.55998277777778,28.948094722222223
0.13989038216546254,0.4174169159376168,0.2870547489293095,0.27025254917376984,02006,020060040,02,Baja California,San Quintín,Camalú,11272,-116.062415,30.843033055555555
0.10029775240566512,0.4844202385467109,0.3443369989524927,0.24038099199988328,02006,020060043,02,Baja California,San Quintín,Campo Daggets,10,-113.54790916666668,28.975748888888887
0.14699130326472606,0.41281403045747134,0.3661548390630384,0.193650494659159,02006,020060079,02,Baja California,San Quintín,Colonia Benito Juárez,1901,-116.05151027777778,30.850283611111113
0.10454907706763691,0.2863095786239649,0.4037764161479111,-0.012917760456309269,02006,020060080,02,Baja California,San Quintín,Colonia Concordia,158,-115.92871722222225,30.509253333333337
0.12116961015741592,0.3004552602655195,0.5782182783242448,-0.15659340790130938,02006,020060084,02,Baja California,San Quintín,Colonia Mirasol,46,-115.96139333333332,30.5103475
0.2565654412742573,0.281338851178795,0.34387691283471344,0.19402737961833882,02006,020060085,02,Baja California,San Quintín,Colonia Nueva Era,3675,-115.91645166666667,30.508735
0.1050012222729209,0.2922315009478399,0.4797211711554528,-0.08248844793469201,02006,020060086,02,Baja California,San Quintín,Colonia Popular Carmona,338,-115.93867694444444,30.514649444444444
0.104710566944132,0.2691940091444516,0.595517643751273,-0.22161306766268946,02006,020060088,02,Baja California,San Quintín,Colonia los Reyes,77,-115.8974927777778,30.485578888888888
0.10761687469171267,0.2652817632985749,0.6223255975987182,-0.24942695960843064,02006,020060089,02,Baja California,San Quintín,Colonia Ávila,18,-115.8929425,30.469929722222226
0.1221610810631142,0.3187732618418452,0.4868374111621858,-0.045903068257226454,02006,020060109,02,Baja California,San Quintín,Ejido Chapala,96,-115.99710416666667,30.513680833333332
0.1088437512061762,0.2590191367325322,0.3625112203895208,0.005351667549187533,02006,020060111,02,Baja California,San Quintín,Ejido Francisco Villa (San Simón),1676,-115.88116944444444,30.444621666666663
0.1308529590841676,0.26548748025194385,0.3871725415920849,0.009167897744026543,02006,020060114,02,Baja California,San Quintín,Ejido José María Morelos,466,-115.90389583333334,30.44598166666667
0.20687322111285245,0.5175384673140716,0.3998193525345421,0.32459233589238196,02006,020060115,02,Baja California,San Quintín,Ejido José María Morelos y Pavón,157,-114.03430055555556,28.29411444444445
0.1215632183908046,0.4709119776776228,0.4591757487685855,0.13329944729984183,02006,020060117,02,Baja California,San Quintín,Ejido Mesa de San Jacinto,145,-116.12413805555556,30.88273166666667
0.22945250883893403,0.24647890454519156,0.3924812494483756,0.08345016393575,02006,020060118,02,Baja California,San Quintín,Ejido Nueva Odisea (El Pabellón),349,-115.85717444444444,30.382278333333335
0.11064400715563506,0.4552279639695848,0.4326359855418407,0.13323598558337924,02006,020060120,02,Baja California,San Quintín,Ejido Nuevo Rosarito,172,-114.01640972222222,28.634303055555556
0.17016926170168836,0.2740682592662516,0.33258186586405647,0.11165565510388353,02006,020060121,02,Baja California,San Quintín,Ejido Papalote,4072,-115.9184163888889,30.476355277777778
0.10294850006061534,0.2852582524523883,0.37262771590002614,0.015579036612977493,02006,020060123,02,Baja California,San Quintín,Ejido Raúl Sánchez Díaz,430,-115.92384333333334,30.5119125
0.2406194986605434,0.476266811474309,0.34574576415524094,0.37114054597961144,02006,020060124,02,Baja California,San Quintín,Ejido Rubén Jaramillo,1072,-116.12596944444444,30.924634166666667
0.11450097547866954,0.2620032079536168,0.3742717470318391,0.0022324364004472907,02006,020060125,02,Baja California,San Quintín,Ejido San Simón de Arriba,251,-115.89037361111112,30.4487175
0.2807692307692307,0.2448724834057328,0.4153100974173729,0.11033161675759062,02006,020060126,02,Baja California,San Quintín,Ejido Valle Tranquilo,108,-115.8039897222222,30.289303055555557
0.3487999299786639,0.5220193972823647,0.3539818197191354,0.5168375075418932,02006,020060127,02,Baja California,San Quintín,Ejido Villa Jesús María,456,-114.00156166666666,28.2807275
0.10009358875351822,0.6793759155016691,0.5972815340516069,0.18218797020358046,02006,020060134,02,Baja California,San Quintín,El Barril,86,-112.87237,28.301609444444445
0.11796332465549608,0.30938748956630546,0.539065521492666,-0.11171470727086441,02006,020060162,02,Baja California,San Quintín,El Coyote [Rancho],5,-115.97590916666668,30.516629166666668
0.10040165472666064,0.24679361049854995,0.4179443938405986,-0.07074912861538801,02006,020060193,02,Baja California,San Quintín,El Pabellón,8,-115.85431916666666,30.37073611111111
0.12931443491946049,0.2593606467268768,0.43923079251570535,-0.050555710869368053,02006,020060197,02,Baja California,San Quintín,El Parador,19,-115.89871833333332,30.417439444444447
0.1946570825472648,0.28620446117976855,0.4582935908474947,0.022567952879538666,02006,020060199,02,Baja California,San Quintín,El Paraíso [Fraccionamiento],845,-115.93095555555556,30.506330555555557
0.1381177118172716,0.2891412752025278,0.5246080857391466,-0.09734909871934727,02006,020060202,02,Baja California,San Quintín,El Pedregal (Bahía el Morro),11,-115.96762333333334,30.466236388888888
0.14359000065067143,0.30271649085148844,0.5104503702355107,-0.06414387873335081,02006,020060207,02,Baja California,San Quintín,El Playón,20,-116.02088472222222,30.432546666666667
0.1053524538850958,0.26772975131163995,0.33750911711473425,0.03557308808200149,02006,020060224,02,Baja California,San Quintín,El Rosario de Abajo,439,-115.73664472222222,30.042765833333338
0.1414523541578091,0.2637314195745776,0.3151063938543257,0.09007737987806097,02006,020060225,02,Baja California,San Quintín,El Rosario de Arriba,1984,-115.72086916666667,30.06396416666667
0.10005788100553271,0.24513814074445797,0.42599400385154246,-0.08079798210155176,02006,020060235,02,Baja California,San Quintín,El Socorrito,71,-115.82003583333334,30.321638611111112
0.1071289213070035,0.37678177735165475,0.3587146326854319,0.1251960659732263,02006,020060248,02,Baja California,San Quintín,Emiliano Zapata,9636,-116.00756166666666,30.767940277777775
0.1001452950442427,0.3197202573159732,0.44406708851882704,-0.024201536158611148,02006,020060249,02,Baja California,San Quintín,Escalante,3,-115.96121305555556,30.559853888888888
0.13405553543447665,0.27770137364690306,0.47405034098208737,-0.06229343190070763,02006,020060250,02,Baja California,San Quintín,Esmeralda,125,-115.9315263888889,30.47270333333333
0.10214494300038524,0.2467905254777479,0.48107779114784527,-0.1321423226697121,02006,020060257,02,Baja California,San Quintín,Familia Aguilera,19,-115.85974472222222,30.389152222222226
0.11776216081786886,0.29880423505232717,0.4625828900763531,-0.046016494206157055,02006,020060260,02,Baja California,San Quintín,Familia Arce,15,-115.95739111111112,30.510989722222224
0.13419175925411028,0.27479854412254157,0.4981725294307196,-0.08918222605406773,02006,020060264,02,Baja California,San Quintín,Familia Becerril,10,-115.92582416666669,30.465313055555555
0.11120803165686027,0.29255358512165275,0.4333834063436663,-0.029621789565153267,02006,020060285,02,Baja California,San Quintín,Familia Delgado Serrano,11,-115.94359555555556,30.51023888888889
0.1001452950442427,0.29391731168039625,0.4815018706040298,-0.08743926387939088,02006,020060287,02,Baja California,San Quintín,Familia Fuentes (Nuevo Mexicali),21,-115.91799611111112,30.543774444444445
0.10001252046999155,0.26680629365527975,0.35167082766198843,0.015147986463282859,02006,020060288,02,Baja California,San Quintín,Familia Fuerte,12,-115.73170277777778,30.044766111111112
0.10005736608893374,0.29109896839142885,0.46156837194090594,-0.07041203746054336,02006,020060289,02,Baja California,San Quintín,Familia Gabino Vázquez,19,-115.90713833333334,30.551598333333335
0.10476307462665892,0.28222085129433,0.4164163290749026,-0.02943240315391371,02006,020060294,02,Baja California,San Quintín,Familia García Esparza,15,-115.92256055555556,30.50387694444445
0.11592967545128792,0.2570680699589601,0.3528574356872822,0.02014030972296582,02006,020060296,02,Baja California,San Quintín,Familia García de León,15,-115.88830944444445,30.420449722222223
0.10265873090271684,0.24753362432346,0.4412629949936714,-0.09107063976749458,02006,020060326,02,Baja California,San Quintín,Familia Maciel,37,-115.8631586111111,30.388791666666663
0.1161469915850461,0.3107336415780554,0.5841476125966827,-0.1572669794335812,02006,020060329,02,Baja California,San Quintín,Familia Marroquín,9,-115.97696416666666,30.518670277777776
0.13389138896103495,0.2919779246836345,0.4108013717922804,0.015067941852389022,02006,020060332,02,Baja California,San Quintín,Familia Maturín,15,-115.95257277777776,30.496600833333336
0.1010750715344786,0.28738177088636807,0.4027869290035296,-0.014330086582682922,02006,020060344,02,Baja California,San Quintín,Familia Padilla (Lázaro Cárdenas),18,-115.91557583333334,30.527338333333333
0.1040549367262117,0.3049787074195518,0.432926874300881,-0.023893230155117517,02006,020060346,02,Baja California,San Quintín,Familia Paniagua,25,-115.9579588888889,30.52528472222222
0.11511259132081544,0.30032648646721055,0.4742060525389123,-0.05876697475088627,02006,020060360,02,Baja California,San Quintín,Familia Raygoza,15,-115.95871138888889,30.51351638888889
0.12820416496524678,0.29951812579297754,0.4373384864089313,-0.009616195650706982,02006,020060365,02,Baja California,San Quintín,Familia Rivera,15,-115.96330472222222,30.50501722222222
0.11052826538077937,0.30571239805916633,0.5221588501567647,-0.10591818671681896,02006,020060383,02,Baja California,San Quintín,Familia Solorio Pérez,9,-115.96428305555555,30.520467777777775
0.10729234237569046,0.25060299586293117,0.3963024435680004,-0.03840710532937874,02006,020060388,02,Baja California,San Quintín,Familia Sánchez de León,15,-115.87624083333333,30.390851388888887
0.1001452950442427,0.2965867767726174,0.40436431642340975,-0.007632244606549654,02006,020060412,02,Baja California,San Quintín,Familia Áreas (Nuevo Mexicali),25,-115.9236,30.544683055555556
0.1062896564769375,0.29182384649638077,0.4076013422438487,-0.00948783927053043,02006,020060413,02,Baja California,San Quintín,Familia Ávalos,9,-115.93930861111112,30.51283972222222
0.13679152270551748,0.28536205521608493,0.4231777414949564,-0.0010241635733539978,02006,020060421,02,Baja California,San Quintín,Generalito [Rancho],15,-115.94846861111112,30.481261944444444
0.10942943893853792,0.3700057301606586,0.6638702407901622,-0.18443507169096574,02006,020060433,02,Baja California,San Quintín,Isla San Martín,15,-116.1039661111111,30.484696944444444
0.23866227265567855,0.2917161800563512,0.3793442350306841,0.15103421768134567,02006,020060440,02,Baja California,San Quintín,Juan María Salvatierra [Granjas],15,-115.95828444444444,30.489207500000003
0.15874194831493513,0.3195943258297949,0.5053698940788675,-0.027033619934137443,02006,020060449,02,Baja California,San Quintín,La Chorera,106,-116.03638611111111,30.46047
0.1001452950442427,0.31379324685461996,0.4234864905557581,-0.009547948656895455,02006,020060453,02,Baja California,San Quintín,La Coyotera,78,-115.95853722222222,30.54630305555556
0.10423747854397256,0.24897525173479984,0.36628145693424985,-0.013068726655477425,02006,020060456,02,Baja California,San Quintín,La Curva (Nueva Odisea),90,-115.86932638888888,30.39104611111111
0.10955267013205804,0.38657664403883085,0.4744614344313758,0.02166787973951312,02006,020060458,02,Baja California,San Quintín,La Escondida,33,-116.02691222222222,30.767533055555553
0.1150707004014762,0.5656039212007087,0.33511965158982454,0.3455549700123603,02006,020060461,02,Baja California,San Quintín,La Espinita [Restaurante],3,-114.01252305555556,28.00679277777778
0.13249771966025806,0.28407624951143723,0.46419604140256754,-0.047622072230872226,02006,020060464,02,Baja California,San Quintín,La Granja [Colonia],8,-115.93940027777778,30.48856277777778
0.10001252046999155,0.2636775298436497,0.3674881917218438,-0.00379814140820256,02006,020060475,02,Baja California,San Quintín,La Mesa,28,-115.73521916666668,30.09313583333333
0.1014133584582057,0.24605198444772453,0.32425757690745366,0.02320776599847657,02006,020060480,02,Baja California,San Quintín,La Petunia,9,-115.85605805555556,30.387203333333332
0.114138459920031,0.5666970187469782,0.3548461042163363,0.32598937445067294,02006,020060483,02,Baja California,San Quintín,La Pinta [Hotel],8,-114.0135761111111,28.00085111111111
0.1020894036628744,0.5215387560294706,0.4230537720690792,0.2005743876232659,02006,020060488,02,Baja California,San Quintín,La Puerta [Rancho],9,-114.00011777777776,28.28895055555556
0.1079350025766482,0.30725874294879,0.5144412669166823,-0.09924752139124415,02006,020060528,02,Baja California,San Quintín,Las Rosas,11,-115.96509527777778,30.523118333333333
0.13406616958683423,0.27895609944035377,0.4792889528602132,-0.06626668383302525,02006,020060542,02,Baja California,San Quintín,Los Balazos [Rancho],8,-115.93461833333332,30.47409861111111
0.11096140868717,0.2569361406853692,0.3536989665141058,0.01419858285843334,02006,020060569,02,Baja California,San Quintín,Los Pinos,11,-115.88201638888889,30.42881861111111
0.10029775240566512,0.48840539785083686,0.3464667849383316,0.2422363653181704,02006,020060581,02,Baja California,San Quintín,Los Vientos,15,-113.55708777777778,28.994425555555555
0.11510827947021098,0.25463557886480026,0.4281166165181963,-0.0583727581831851,02006,020060583,02,Baja California,San Quintín,Luis Rodríguez (El Vergel),1066,-115.88728111111112,30.406768888888887
0.19699589712137097,0.2938400767262009,0.2938375570611459,0.19699841678642593,02006,020060585,02,Baja California,San Quintín,Lázaro Cárdenas,18829,-115.93194666666668,30.525980555555556
0.10573579647716018,0.30411899937186004,0.4933101135070015,-0.08345531765798125,02006,020060596,02,Baja California,San Quintín,Mi Lindo Michoacán,28,-115.95844916666668,30.52286944444444
0.1372659919593694,0.29803947137719006,0.3784602503186027,0.05684521301795675,02006,020060605,02,Baja California,San Quintín,Molino Viejo,27,-115.97686694444444,30.484598333333334
0.2,0.5666767030662956,0.3264369289852474,0.44023977408104814,02006,020060623,02,Baja California,San Quintín,Ninguno,480,-114.01210611111112,28.00206111111111
0.10509919315822217,0.30221088720519407,0.5534619051429828,-0.14615182477956656,02006,020060629,02,Baja California,San Quintín,Nuevo Mundo,299,-115.95481111111113,30.522264999999997
0.1033751367404773,0.2611067859528366,0.35993512570378056,0.004546796989533364,02006,020060630,02,Baja California,San Quintín,Nuevo Uruapan,1042,-115.70855083333332,30.07468972222222
0.13778265768160533,0.302992476713093,0.44790733027221447,-0.007132195877516179,02006,020060642,02,Baja California,San Quintín,Parcela Número Cinco (Ejido Nuevo Mexicali),42,-115.93056333333334,30.55563194444445
0.10403132835925057,0.30322511274385777,0.4315252961362776,-0.02426885503316928,02006,020060645,02,Baja California,San Quintín,Parcela Veinticuatro (Ejido Baja California),30,-115.95497472222222,30.524304722222222
0.10212098916674844,0.2817810593286298,0.4935314782210695,-0.10962942972569129,02006,020060646,02,Baja California,San Quintín,Paseo de San Quintín,1413,-115.91256333333334,30.51490527777778
0.10565532355759888,0.29313886655268023,0.5360282903074948,-0.13723410019721566,02006,020060651,02,Baja California,San Quintín,Pinos de Madrid Etapa 1,107,-115.94086916666669,30.514678611111112
0.10808054437373849,0.2945173521303861,0.6340919544046149,-0.23149405790049027,02006,020060652,02,Baja California,San Quintín,Pinos de Madrid Etapa 2,39,-115.94501277777778,30.513866944444445
0.10059885722127423,0.3077378027712284,0.4556924978396922,-0.0473558378471895,02006,020060660,02,Baja California,San Quintín,Praderas de San Quintín,185,-115.95145527777778,30.53907361111111
0.1038900084772921,0.2911829228178527,0.40376000647010374,-0.00868707517495898,02006,020060663,02,Baja California,San Quintín,Pueblo Benito García,1505,-115.93550277777778,30.515348055555556
0.11931534256255792,0.5553465671624582,0.572092243108166,0.10256966661685019,02006,020060672,02,Baja California,San Quintín,Puerto Viejo,5,-114.11849305555556,28.035699166666667
0.12266666666666665,0.4305066471388094,0.44535495701990874,0.10781835678556723,02006,020060683,02,Baja California,San Quintín,Punta Prieta,135,-114.15397833333334,28.92798972222222
0.10040165472666064,0.24507114153874923,0.40985069483540343,-0.06437789856999354,02006,020060715,02,Baja California,San Quintín,Rancho González,14,-115.84545444444444,30.3748525
0.10169207422599898,0.2849791962342182,0.38678618721238806,-1.1491675217090158e-4,02006,020060743,02,Baja California,San Quintín,Rancho Soto,18,-115.91436472222225,30.52248111111111
0.10040165472666064,0.24537295874558585,0.35404353856999005,-0.008268925097743574,02006,020060759,02,Baja California,San Quintín,Rivera,18,-115.84978,30.378460833333335
0.15350556054798492,0.523512375464454,0.4314637430653657,0.24555419294707315,02006,020060772,02,Baja California,San Quintín,San Carlos,4,-113.993635,28.270906944444445
0.10104470583250742,0.3075037205515159,0.44502672830348255,-0.03647830191945922,02006,020060800,02,Baja California,San Quintín,San Miguel [Rancho],38,-115.95418305555556,30.53529055555556
0.11575575296886784,0.2554324862144065,0.4227258957081136,-0.051537656524839215,02006,020060832,02,Baja California,San Quintín,Santa María (Los Pinos),2172,-115.88807055555556,30.41132
0.16675614655064838,0.4336876547066635,0.4555495226146905,0.1448942786426214,02006,020060837,02,Baja California,San Quintín,Santa Rosaliíta,221,-114.23428111111112,28.670738611111112
0.10023159761215716,0.24399081203685596,0.3966026703633549,-0.052380260714341764,02006,020060841,02,Baja California,San Quintín,Sara [Mina],11,-115.82571583333332,30.36883166666667
0.12382787712995816,0.29327536336970794,0.4226517055574387,-0.0055484650577726224,02006,020060845,02,Baja California,San Quintín,Soto Warren [Rancho],20,-115.95085472222225,30.503506666666667
0.1001452950442427,0.29773990084469465,0.39610164156922695,0.0017835543197103898,02006,020060858,02,Baja California,San Quintín,Valle Dorado,961,-115.92356222222224,30.548790833333335
0.18551783229441177,0.25540136568627747,0.4415047855434318,-5.855875627425733e-4,02006,020060861,02,Baja California,San Quintín,Venustiano Carranza (Santa María),1503,-115.89235694444446,30.402415555555553
0.11785450935227593,0.3690275633841877,0.2781294207141258,0.20875265202233784,02006,020060863,02,Baja California,San Quintín,Vicente Guerrero,13876,-115.98928583333334,30.73202388888889
0.10378389318584672,0.3099342615136117,0.4467867250292178,-0.033068570329759406,02006,020060865,02,Baja California,San Quintín,Villa San Sebastián,11,-115.96565083333334,30.528660833333333
0.2763524668203084,0.7526985333032672,0.354466734629528,0.6745842654940475,03001,030010001,03,Baja California Sur,Comondú,Ciudad Constitución,43805,-111.67333944444444,25.034635555555557
0.22530008023229817,0.5424338261617689,0.3843014611812665,0.3834324452128006,03001,030010003,03,Baja California Sur,Comondú,Puerto Adolfo López Mateos,2227,-112.1106136111111,25.19290611111111
0.02625464431619815,0.26191619700899826,0.7844244553923952,-0.4962536140671988,03001,030010027,03,Baja California Sur,Comondú,Puerto Magdalena,55,-112.13987361111111,24.634451666666667
0.04323715058611362,0.32098379998708365,0.7281937710325305,-0.3639728204593332,03001,030010045,03,Baja California Sur,Comondú,Cadejé,12,-112.51236194444444,26.377905277777774
0.00431058226771868,0.4328156984569858,0.5714682875695233,-0.13434200684481878,03001,030010049,03,Baja California Sur,Comondú,Las Barrancas,539,-112.19741972222222,26.00216222222222
0.01454678362573099,0.4368918269062783,0.6143266057663787,-0.16288799523436936,03001,030010112,03,Baja California Sur,Comondú,Francisco Villa,38,-112.02861638888888,25.80303388888889
0.0065122707985144,0.6821159989361443,0.5063882378123536,0.18224003192230498,03001,030010133,03,Baja California Sur,Comondú,Ciudad Insurgentes,9133,-111.77746194444444,25.264104444444445
0.12214412190854934,0.5679585144853954,0.5925139645309091,0.09758867186303555,03001,030010162,03,Baja California Sur,Comondú,María Auxiliadora,130,-111.90055444444444,25.427455277777774
0.00907790379322402,0.43455389179020154,0.5002363292664747,-0.056604533683049074,03001,030010224,03,Baja California Sur,Comondú,La Poza Grande,470,-112.02668527777776,25.768381666666667
0.01810889666260995,0.34701487828952465,0.8247281515547489,-0.4596043766026143,03001,030010241,03,Baja California Sur,Comondú,Puerto Alcatraz,154,-111.84652361111112,24.50470222222222
0.00551965704918653,0.5525754653646097,0.629264553905748,-0.07116943149195176,03001,030010244,03,Baja California Sur,Comondú,La Purísima,365,-112.07416055555557,26.18828638888889
0.40465381089655433,0.38475615727834583,0.17747266686604488,0.6119373013088553,03001,030010280,03,Baja California Sur,Comondú,Puerto San Carlos,5742,-112.10806194444444,24.78974555555556
0.05027977815383475,0.6965659642953523,0.5586209601794299,0.18822478226975725,03001,030010293,03,Baja California Sur,Comondú,San José de Comondú,73,-111.82369583333332,26.058766666666667
0.01538615768363373,0.5442769891068419,0.5366870476935267,0.022976099096948865,03001,030010335,03,Baja California Sur,Comondú,Santo Domingo,689,-111.91833166666667,25.489236666666667
0.00157689854626228,0.7749259724408244,0.5523479366586888,0.22415493432839795,03001,030010380,03,Baja California Sur,Comondú,Villa Morelos,1189,-111.62982861111112,24.92967888888889
0.00194891766749461,0.6182249977467649,0.5179192308400542,0.10225468457420528,03001,030010387,03,Baja California Sur,Comondú,Villa Ignacio Zaragoza,1304,-111.84292138888888,25.397045277777774
0.00120673952641165,0.7691257663627956,0.6192158192548882,0.1511166866343191,03001,030010390,03,Baja California Sur,Comondú,Ley Federal de Aguas Número Uno,488,-111.6398088888889,25.33737
0.02872163711621426,0.4705965708316277,0.7662036908892291,-0.26688548294138714,03001,030010450,03,Baja California Sur,Comondú,Puerto Cancún,19,-111.74650083333331,24.548403888888892
0.07327301376650906,0.42120994295508185,0.7334488159821535,-0.23896585926056257,03001,030010662,03,Baja California Sur,Comondú,San Buto [Campo Pesquero],55,-112.05215527777776,24.784290555555557
1.2664265188366247e-4,0.42956077902639594,0.8904903964912219,-0.46080297481294225,03001,030010911,03,Baja California Sur,Comondú,La Bocana de San Gregorio,7,-112.2866661111111,26.060760277777774
0.1027777777777778,0.7780812362182633,0.7451471908172385,0.1357118231788026,03001,030011964,03,Baja California Sur,Comondú,San Carlos Lote 605-3,10,-111.62379361111113,24.906477777777777
0.10677116599664364,0.3594304549200844,0.6422180900055725,-0.17601646908884444,03001,030012086,03,Baja California Sur,Comondú,San Juanico,512,-112.47860694444444,26.25719972222222
0.02416504427350132,0.4325959839868128,0.841580316833656,-0.38481928857334186,03001,030012476,03,Baja California Sur,Comondú,El Chicharrón,82,-112.27340083333333,26.065300555555556
0.3,0.4256031517977375,0.7242322203567881,0.0013709314409493523,03001,030012821,03,Baja California Sur,Comondú,El Ranchito,149,-112.090545,24.830358055555557
0.3700678367326819,0.6219923737657194,0.29560732797937556,0.6964528825190257,03002,030020001,03,Baja California Sur,Mulegé,Santa Rosalía,14357,-112.26827472222222,27.33686833333333
0.13174693199608012,0.3495158907923385,0.4447885819842248,0.03647424080419387,03002,030020014,03,Baja California Sur,Mulegé,Bahía Asunción,1453,-114.29755805555556,27.140901944444444
0.24374280414819272,0.3400350212859864,0.3611933456035985,0.2225844798305806,03002,030020015,03,Baja California Sur,Mulegé,Bahía Tortugas,2367,-114.89567916666668,27.69174388888889
0.10257633142775194,0.5692953588186718,0.7055879533681746,-0.03371626312175091,03002,030020041,03,Baja California Sur,Mulegé,El Coyote,8,-111.90971833333334,26.723018611111108
0.17324534348923112,0.5375305824007446,0.7793140915172487,-0.068538165627273,03002,030020049,03,Baja California Sur,Mulegé,El Dátil,311,-112.91499361111111,26.532867222222222
0.1499277377981056,0.3888818468078451,0.5309859634349833,0.007823621170967354,03002,030020056,03,Baja California Sur,Mulegé,Estero de la Bocana,1013,-113.71192388888888,26.79795138888889
0.34178271247205766,0.3531045648396398,0.4621953873670633,0.23269188994463413,03002,030020066,03,Baja California Sur,Mulegé,Guerrero Negro,13596,-114.05302111111112,27.971833055555553
0.10053639637783474,0.3718538253793141,0.6422894376782095,-0.1698992159210606,03002,030020076,03,Baja California Sur,Mulegé,Isla Natividad,268,-115.17051611111113,27.8539925
0.10090629652855068,0.6027158503928494,0.7947001809623524,-0.09107803404095238,03002,030020089,03,Baja California Sur,Mulegé,Los Mártires,424,-113.22342944444443,27.35094027777778
0.21777761873328472,0.5441823129002813,0.40506042184629826,0.35689950978726775,03002,030020097,03,Baja California Sur,Mulegé,Heroica Mulegé,3834,-111.98140055555557,26.891565
0.15554366519819643,0.4240439051308104,0.38311738137631834,0.19647018895268853,03002,030020116,03,Baja California Sur,Mulegé,Punta Abreojos,977,-113.57315666666666,26.717676388888886
0.24172241803524705,0.616628410925614,0.5800726412764247,0.27827818768443646,03002,030020140,03,Baja California Sur,Mulegé,San Bruno,739,-112.16193694444443,27.1623825
0.10869499675122568,0.564706466035548,0.47285372287836674,0.20054773990840696,03002,030020149,03,Baja California Sur,Mulegé,San Ignacio,521,-112.8949475,27.281974166666664
0.20540405085497265,0.6183468185327762,0.5832094138236203,0.24054145556412854,03002,030020165,03,Baja California Sur,Mulegé,Ejido San Lucas,732,-112.22268055555556,27.22209333333333
0.10045150924081953,0.56321243983879965,0.662655586176508,0.0010083629031112373,03002,030020244,03,Baja California Sur,Mulegé,Ejido Licenciado Alfredo Vladimir Bonfil,337,-112.70886111111112,27.36388888888889
0.1398744817671941,0.547596578466751,0.6837089626670598,0.0037620975668852807,03002,030020456,03,Baja California Sur,Mulegé,Campo Delgadito,77,-113.05683944444444,26.60546138888889
0.11054691470442513,0.4850710985086553,0.7344200391892972,-0.13880202597621683,03002,030020515,03,Baja California Sur,Mulegé,La Base,24,-113.13716472222222,26.863326944444445
0.1042563538443178,0.5684744995299108,0.585599317210868,0.08713153616336067,03002,030020715,03,Baja California Sur,Mulegé,Posada Concepción,58,-111.89834194444444,26.752700555555556
0.10107145405930672,0.5440712556410807,0.8386333231712494,-0.19349061347086194,03002,030020823,03,Baja California Sur,Mulegé,Los Batequis,7,-112.99927861111112,26.613912222222226
0.62990357971077,0.5009681886711196,0.6565975120463534,0.4742742563355362,03002,030020967,03,Baja California Sur,Mulegé,El Cardón,102,-113.14943805555556,26.79987638888889
0.207158540187441,0.49430583954048446,0.6391964572400383,0.06226792248788715,03002,030021374,03,Baja California Sur,Mulegé,Ejido Luis Echeverría,433,-113.14765138888887,26.82319888888889
0.202186649819317,0.5921849977916015,0.7430314817699948,0.05134016584092371,03002,030021515,03,Baja California Sur,Mulegé,El Dátil,10,-113.0975322222222,27.673203055555557
0.136091500549971,0.43864129058767987,0.642045551836275,-0.06731276069862413,03002,030021554,03,Baja California Sur,Mulegé,La Baliza,7,-113.54786333333332,26.728118888888886
0.10935820992959744,0.3373667111508392,0.5034842290391581,-0.05675930795872147,03002,030021777,03,Baja California Sur,Mulegé,Quinta Gloria,20,-114.8451297222222,27.726344166666664
0.5021428750864759,0.7149194728833005,0.08581284234811519,1.1312495056216612,03003,030030001,03,Baja California Sur,La Paz,La Paz,250141,-110.30659,24.148745
